ID,Business,Street Address,City,State,ZIP,Latitude,Longitude,Type of Installation,Georeference
646,"Cumberland Farms, Inc.",4394 Boston Post Rd,Pelham Manor,NY,10803,40.890908,-73.81746,Transfer Switch Only,POINT (-73.81746 40.890908)
893,Onder Realty Inc.,1490 Islip Avenue,Brentwood,NY,11717,40.777026,-73.215785,Transfer Switch Only,POINT (-73.215785 40.777026)
70,Astoria Fuel & Convenience Store Inc,30-02 Astoria Blvd,Astoria,NY,11102,40.770129,-73.919043,Permanent Generator,POINT (-73.919043 40.770129)
810,IHI Trucking,297 Robbins Lane,Syosset,NY,11791,40.798362,-73.516235,Transfer Switch Only,POINT (-73.516235 40.798362)
630,"Cumberland Farms, Inc.",466 Rockaway Tpk,Cedarhurst,NY,11516,40.628395,-73.736835,Transfer Switch Only,POINT (-73.736835 40.628395)
366,BP Products North America Inc.,205-33 Hollis Avenue,Queens,NY,11412,40.707534,-73.751659,Transfer Switch Only,POINT (-73.751659 40.707534)
139,R & A Petroleum Corp,272 E Jericho Typke,Huntington Station,NY,11746,40.828858,-73.399785,Permanent Generator,POINT (-73.399785 40.828858)
761,"East River Petroleum Realty, Llc",84-04 Parsons Boulevard,Queens,NY,11432,40.71396,-73.8076,Transfer Switch Only,POINT (-73.8076 40.71396)
102,PMG Northeast LLC,819 W Jericho Tpke,Smithtown,NY,11787,40.847663,-73.234996,Permanent Generator,POINT (-73.234996 40.847663)
480,Costco Wholesale Corporation,50 Overlook Road,Nanuet,NY,10954,41.107546,-74.025473,Transfer Switch Only,POINT (-74.025473 41.107546)
348,BP Products North America Inc.,8914 Ditmas Avenue,Brooklyn,NY,11236,40.647903,-73.914809,Transfer Switch Only,POINT (-73.914809 40.647903)
847,Global Montello Group Corp.,69 Pascach Road,Nanuet,NY,10954,41.101769,-74.033381,Transfer Switch Only,POINT (-74.033381 41.101769)
910,Delta Food Mart Inc.,109-113 Bronx River Rd,yonkers,NY,10704,40.904947,-73.859028,Transfer Switch Only,POINT (-73.859028 40.904947)
334,BP Products North America Inc.,4068 3rd Avenue,Bronx,NY,10457,40.843424,-73.897542,Transfer Switch Only,POINT (-73.897542 40.843424)
629,"Cumberland Farms, Inc.",1214 Grand Avenue,Baldwin,NY,11510,40.68068,-73.615308,Transfer Switch Only,POINT (-73.615308 40.68068)
250,Hess Corporation,2451 Nesconset Highway,Stony Brook,NY,11790,40.877392,-73.118227,Transfer Switch Only,POINT (-73.118227 40.877392)
894,S&M Service Station Corporation,296 Mclean Av,Yonkers,NY,10705,40.910645,-73.889221,Transfer Switch Only,POINT (-73.889221 40.910645)
519,East End Marketing,210 Greenwich St,Hempstead,NY,11550,40.700535,-73.617219,Transfer Switch Only,POINT (-73.617219 40.700535)
963,Z.S.L. Inc,318 Merrick Road,Amityville,NY,11701,40.669367,-73.409408,Transfer Switch and Generator,POINT (-73.409408 40.669367)
469,"Sunoco, Inc. (R+M)",3650 Lee Blvd,Jefferson Valley,NY,10535,41.331467,-73.80954,Transfer Switch Only,POINT (-73.80954 41.331467)
235,Hess Corporation,540 Old Country Road,Hicksville,NY,11801,40.75748,-73.546674,Transfer Switch Only,POINT (-73.546674 40.75748)
942,Lakeview Woodfield Inc.,688 Woodfield Road,Lake View,NY,11552,40.686145,-73.652769,Transfer Switch and Generator,POINT (-73.652769 40.686145)
1,MPW Enterprises LLC,14 North Airmont Road,Suffern,NY,10901,41.11475,-74.11423333,Permanent Generator,POINT (-74.11423333 41.11475)
778,"Hudson Petroleum Realty, LLC",2955 Cropsey Avenue,Brooklyn,NY,11214,40.582883,-73.985927,Transfer Switch Only,POINT (-73.985927 40.582883)
556,Bill Wolf Petroleum Maintenance LLC,34-17 Northern Boulevard,Queens,NY,11101,40.752317,-73.929607,Transfer Switch Only,POINT (-73.929607 40.752317)
667,"Cumberland Farms, Inc.",1194 Portion Road,Holtsville,NY,11742,40.835714,-73.053254,Transfer Switch Only,POINT (-73.053254 40.835714)
89,Genesis Petroleum Inc.,199 East Sunrise Highway,Freeport,NY,11520,40.657742,-73.573991,Permanent Generator,POINT (-73.573991 40.657742)
482,BK Gas Corp,30 Mount Vernon Avenue,Mount Vernon,NY,10550,40.910963,-73.845426,Transfer Switch Only,POINT (-73.845426 40.910963)
353,BP Products North America Inc.,60-11 Queens Boulevard,Queens,NY,11377,40.741903,-73.904062,Transfer Switch Only,POINT (-73.904062 40.741903)
409,Bolla Operating LI Corp,2475 Hempstead Tpk,East Meadow,NY,11554,40.724899,-73.543599,Transfer Switch Only,POINT (-73.543599 40.724899)
978,Bolla Operating Corp.,1935 Linden Blv,Brooklyn,NY,11207,40.658718,-73.89134,Transfer Switch Only,POINT (-73.89134 40.658718)
171,AS&R Petroleum Inc.,5914 Riverdale Avenue,Bronx,NY,10471,40.907467,-73.903739,Transfer Switch Only,POINT (-73.903739 40.907467)
524,R.S.V. S/S INC.,164 Willis Avenue,Bronx,NY,10454,40.80724,-73.923779,Transfer Switch Only,POINT (-73.923779 40.80724)
583,"Cumberland Farms, Inc.",1490 Fifth Av Spur Dr South,Bay Shore,NY,11706,40.747595,-73.264157,Transfer Switch Only,POINT (-73.264157 40.747595)
763,"East River Petroleum Realty, Llc",133-11 Roosevelt Avenue,Queens,NY,11354,40.75863,-73.834,Transfer Switch Only,POINT (-73.834 40.75863)
1006,Atlantis Management Group II LLC,1930 Bartow Ave,Bronx,NY,10475,40.867943,-73.833417,Transfer Switch Only,POINT (-73.833417 40.867943)
116,Petrogas Group US Inc,797 Peninsula Blvd,Hempstead,NY,11550,40.692452,-73.631524,Permanent Generator,POINT (-73.631524 40.692452)
684,"Cumberland Farms, Inc.",115-05 Beach Channel Drive,Queens,NY,11694,40.581738,-73.837196,Transfer Switch Only,POINT (-73.837196 40.581738)
731,PARS Auto Service Center Inc.,540 Sunrise Highway,West Islip,NY,11795,40.723779,-73.291634,Transfer Switch Only,POINT (-73.291634 40.723779)
218,Hess Corporation,285 East 233rd Street,Bronx,NY,10470,40.896317,-73.867346,Transfer Switch Only,POINT (-73.867346 40.896317)
277,NY Fuel Distributors LLC,870 Route 35,Cross River,NY,10518,41.268902,-73.605864,Transfer Switch Only,POINT (-73.605864 41.268902)
995,CPD NY Energy Corp,316 Main St,Nyack,NY,10960,41.09298,-73.92969,Transfer Switch Only,POINT (-73.92969 41.09298)
309,Metro NY Dealer Stations LLC,1500 Jericho Turnpike,New Hyde Park,NY,11040,40.733449,-73.679701,Transfer Switch Only,POINT (-73.679701 40.733449)
742,Anjon of Greenlawn,253 Broadway,Huntington,NY,11743,40.850603,-73.36624,Transfer Switch Only,POINT (-73.36624 40.850603)
6,PMG Northeast LLC,499 East Old Country Road,Hicksville,NY,11801,40.7692,-73.501569,Permanent Generator,POINT (-73.501569 40.7692)
874,Star Petroleum Management Inc.,117-01 Springfield Boulevard,Queens,NY,11411,40.695901,-73.743293,Transfer Switch Only,POINT (-73.743293 40.695901)
450,"Sunoco, Inc. (R+M)",5140 Veterans Highway,Holbrook,NY,11741,40.773368,-73.066283,Transfer Switch Only,POINT (-73.066283 40.773368)
121,PMG Northeast LLC,3285 Hempstead Turnpike,Levittown,NY,11756,40.726299,-73.51476,Permanent Generator,POINT (-73.51476 40.726299)
248,Hess Corporation,450 Long Beach Road,Long Beach,NY,11561,40.589702,-73.657889,Transfer Switch Only,POINT (-73.657889 40.589702)
380,500 Townline Corp.,500 Townline Road,Hauppauge,NY,11788,40.825262,-73.203752,Transfer Switch Only,POINT (-73.203752 40.825262)
879,Harmony Auto Service Inc.,196 Henry St,Hempstead,NY,11550,40.701199,-73.615037,Transfer Switch Only,POINT (-73.615037 40.701199)
441,Bolla Operating LI Corp,5389 Merrick Rd,Massapequa,NY,11758,40.668201,-73.437923,Transfer Switch Only,POINT (-73.437923 40.668201)
656,"Cumberland Farms, Inc.",178-02 Union Turnpike,Queens,NY,11366,40.726136,-73.789708,Transfer Switch Only,POINT (-73.789708 40.726136)
512,Bill Wolf Petroleum Maintenance LLC,140 Route 59,Spring Valley,NY,10977,41.107898,-74.037864,Transfer Switch Only,POINT (-74.037864 41.107898)
615,"Cumberland Farms, Inc.",14 W Main St,Elmsford,NY,10523,41.055717,-73.822128,Transfer Switch Only,POINT (-73.822128 41.055717)
270,NY Fuel Distributors LLC,395 Central Av,White Plains,NY,10606,41.031927,-73.786466,Transfer Switch Only,POINT (-73.786466 41.031927)
678,"Cumberland Farms, Inc.",82-06 Astoria Boulevard,Queens,NY,11370,40.76477,-73.886765,Transfer Switch Only,POINT (-73.886765 40.76477)
203,Hess Corporation,250-26 Jericho Turnpike,Floral Park,NY,11001,40.726385,-73.714952,Transfer Switch Only,POINT (-73.714952 40.726385)
598,"Cumberland Farms, Inc.",401 Medford Avenue,Patchogue,NY,11772,40.781704,-73.007999,Transfer Switch Only,POINT (-73.007999 40.781704)
862,Bill's Friendly Auto Service,1175 Willis Av,Albertson,NY,11507,40.776687,-73.650753,Transfer Switch Only,POINT (-73.650753 40.776687)
11,Alliance Energy LLC,113-21 Rockaway Blvd.,South Ozone Park,NY,11420,40.67735,-73.8247,Permanent Generator,POINT (-73.8247 40.67735)
386,Barney's Service Station,200-05 Horace Harding Expy,Queens,NY,11364,40.744205,-73.775393,Transfer Switch Only,POINT (-73.775393 40.744205)
385,BP Products North America Inc.,1883 Front Street,East Meadow,NY,11554,40.719947,-73.564452,Transfer Switch Only,POINT (-73.564452 40.719947)
57,PMG Northeast LLC,79 Old Country Road,Westbury,NY,11590,40.747665,-73.588271,Permanent Generator,POINT (-73.588271 40.747665)
534,1185 Straight Path Corp.,967 Jericho Turnpike,Huntington Station,NY,11746,40.8358833333,-73.3736333333,Transfer Switch Only,POINT (-73.3736333333 40.8358833333)
551,One Stop Petroleum Inc.,2425 Jerusalem Avenue,North Bellmore,NY,11710,40.6907,-73.54285,Transfer Switch Only,POINT (-73.54285 40.6907)
143,Trisul Inc,669 Old Town Road,Port Jefferson,NY,11776,40.897966,-73.046048,Permanent Generator,POINT (-73.046048 40.897966)
501,Bill Wolf Petroleum Maintenance LLC,590 East Fordham Road,Bronx,NY,10458,40.85842,-73.885463,Transfer Switch Only,POINT (-73.885463 40.85842)
798,MNC Realty Corp,43-07 Astoria Boulevard,Queens,NY,11105,40.76916,-73.906258,Transfer Switch Only,POINT (-73.906258 40.76916)
716,"7-Eleven, Inc.",145 Hospital Road,East Patchogue,NY,11772,40.782383,-72.977941,Transfer Switch Only,POINT (-72.977941 40.782383)
473,Atlantis Management Group II LLC,1099 Horseblock Road,Farmingville,NY,11738,40.829639,-73.01418,Transfer Switch Only,POINT (-73.01418 40.829639)
815,261 E Merrick Rd. Inc,261 E Merrick Rd,Freeport,NY,11520,40.654111,-73.569308,Transfer Switch Only,POINT (-73.569308 40.654111)
699,Gaseteria Oil Corp,99-49 Horace Harding Exp,Queens,NY,11368,40.736676,-73.857219,Transfer Switch Only,POINT (-73.857219 40.736676)
748,OK Gasmart Inc,145 Middle Country Road,Coram,NY,11727,40.873198,-72.98725,Transfer Switch Only,POINT (-72.98725 40.873198)
914,Hunter Petroleum Corp.,1614 Route 112,Medford,NY,11763,40.798121,-73.006145,Transfer Switch Only,POINT (-73.006145 40.798121)
946,Marshall and Sons Service Station,701 Montauk Highway,Montauk,NY,11954,41.0338166667,-71.9463666667,Transfer Switch and Generator,POINT (-71.9463666667 41.0338166667)
341,BP Products North America Inc.,21-17 Jackson Av,Queens,NY,11101,40.745143,-73.948132,Transfer Switch Only,POINT (-73.948132 40.745143)
539,Pilliar Services Inc,1862 5th Av,Brentwood,NY,11717,40.776791,-73.260221,Transfer Switch Only,POINT (-73.260221 40.776791)
154,Atlantic Gas Inc,1381 Atlantic Ave,Brooklyn,NY,11216,40.678452,-73.944471,Permanent Generator,POINT (-73.944471 40.678452)
931,CPD NY Energy Corp.,536 Main Street,New Paltz,NY,12561,41.107314,-73.803142,Transfer Switch Only,POINT (-73.803142 41.107314)
671,"Cumberland Farms, Inc.",1185 Merrick Avenue,Merrick,NY,11566,40.691714,-73.563246,Transfer Switch Only,POINT (-73.563246 40.691714)
830,"East River Petroleum Realty, LLC",96-27 Queens Boulevard,Queens,NY,11374,40.730366,-73.861569,Transfer Switch Only,POINT (-73.861569 40.730366)
175,Bede Inc.,9 Lake Avenue,Riverhead,NY,11901,40.914396,-72.663162,Transfer Switch Only,POINT (-72.663162 40.914396)
405,5th Ave Petroleum Inc.,1501 Fifth Avenue,Bay Shore,NY,11706,40.750484,-73.262732,Transfer Switch Only,POINT (-73.262732 40.750484)
899,"NKG Service, Inc.",88-20 Astoria Boulevard,Queens,NY,11369,40.763413,-73.880454,Transfer Switch Only,POINT (-73.880454 40.763413)
186,Hess Corporation,731 Mamaroneck Avenue,Mamaroneck,NY,10543,40.956359,-73.737938,Transfer Switch Only,POINT (-73.737938 40.956359)
1002,Lotus Management Group NY Inc.,144-31 Farmers Blvd,Jamaica,NY,11434,40.667658,-73.766372,Transfer Switch Only,POINT (-73.766372 40.667658)
43,Alliance Energy LLC,7611 Northern Blvd.,Jackson Height,NY,11372,40.75535,-73.8906,Permanent Generator,POINT (-73.8906 40.75535)
783,"East River Petroleum Realty, LLC",20-02 Parsons Boulevard,Queens,NY,11357,40.78149,-73.82285,Transfer Switch Only,POINT (-73.82285 40.78149)
710,Astoria Shell Service Center Corp,43-20 Astoria Boulevard,Queens,NY,11103,40.768148,-73.907585,Transfer Switch Only,POINT (-73.907585 40.768148)
842,Genesis Petroleum Inc,465 Nassau Road,Roosevelt,NY,11575,40.684456,-73.593011,Transfer Switch Only,POINT (-73.593011 40.684456)
418,Hess Corporation,2251 Nostrand Avenue,Brooklyn,NY,11210,40.629885,-73.947107,Transfer Switch Only,POINT (-73.947107 40.629885)
25,PMG Northeast LLC,1889 Rt. 112,Coram,NY,11727,40.891736,-73.014252,Permanent Generator,POINT (-73.014252 40.891736)
974,Bolla EM Realty LLC,185 Flatbush Avenue Ext,Brooklyn,NY,11201,40.69465,-73.983492,Transfer Switch Only,POINT (-73.983492 40.69465)
886,Larkfield USA Inc.,311 Larkfield Road,East Northport,NY,11731,40.873128,-73.323254,Transfer Switch Only,POINT (-73.323254 40.873128)
289,NY Fuel Distributors LLC,1821 Commerce Street,Yorktown Heights,NY,10598,41.271103,-73.780616,Transfer Switch Only,POINT (-73.780616 41.271103)
302,Metro NY Dealer Stations LLC,408 Rockaway Turnpike,Cedarhurst,NY,11516,40.626763,-73.736335,Transfer Switch Only,POINT (-73.736335 40.626763)
321,West Bay Marketing LLC.,17 Merrick Rd,Baldwin,NY,11510,40.651221,-73.604073,Transfer Switch Only,POINT (-73.604073 40.651221)
566,Global Montello Group,49-25 Van Dam Street,Queens,NY,11101,40.738886,-73.934507,Transfer Switch Only,POINT (-73.934507 40.738886)
437,Global Montello Group LLC,232 Long Beach Road,Rockville Centre,NY,11570,40.66171,-73.629015,Transfer Switch Only,POINT (-73.629015 40.66171)
38,Bolla Operating LI Corp,2475 Hempstead Turnpike,East Meadow,NY,11554,40.724899,-73.543599,Permanent Generator,POINT (-73.543599 40.724899)
26,PMG Northeast LLC,1194 Portion Road,Holstville,NY,11742,40.835714,-73.053254,Permanent Generator,POINT (-73.053254 40.835714)
652,"Cumberland Farms, Inc.",864 Carmen Avenue,Westbury,NY,11590,40.74814,-73.552017,Transfer Switch Only,POINT (-73.552017 40.74814)
258,Busy Bee Stores Corp.,292 Long Beach Road,Oceanside,NY,11572,40.644421,-73.639566,Transfer Switch Only,POINT (-73.639566 40.644421)
390,2978 Gas Corp,2978 Cropsey Avenue,Brooklyn,NY,11214,40.582368,-73.986512,Transfer Switch Only,POINT (-73.986512 40.582368)
53,Gaseteria Oil Corp,1705 Richmond Ave,Staten Island,NY,10314,40.606817,-74.161697,Permanent Generator,POINT (-74.161697 40.606817)
725,LUKOIL North America LLC,101-06 Astoria Boulevard,Queens,NY,11369,40.761409,-73.867869,Transfer Switch Only,POINT (-73.867869 40.761409)
15,Mosholu Petro Realty LLC,3276 Jerome Ave,Bronx,NY,10468,40.878335,-73.885879,Permanent Generator,POINT (-73.885879 40.878335)
571,Webster Oil Corp,958 Montauk Highway,West Islip,NY,11795,40.697173,-73.284804,Transfer Switch Only,POINT (-73.284804 40.697173)
185,Hess Corporation,1861 Fifth Avenue,Brentwood,NY,11717,40.776874,-73.259519,Transfer Switch Only,POINT (-73.259519 40.776874)
720,"7-Eleven, Inc.",125 Crooked Hill Road,Brentwood,NY,11717,40.78213,-73.261939,Transfer Switch Only,POINT (-73.261939 40.78213)
786,"East River Petroleum Realty, LLC",138-50 Hillside Avenue,Queens,NY,11432,40.704047,-73.81466,Transfer Switch Only,POINT (-73.81466 40.704047)
373,BP Products North America Inc.,3055 Westchester Av,Bronx,NY,10461,40.84863,-73.831136,Transfer Switch Only,POINT (-73.831136 40.84863)
505,Bill Wolf Petroleum Maintenance LLC,516 Merrick Rd,Rockville Centre,NY,11570,40.654341,-73.634727,Transfer Switch Only,POINT (-73.634727 40.654341)
111,Bolla Operating LI Corp,3705 Middle Country Rd,Calverton,NY,11933,40.926095,-72.746048,Permanent Generator,POINT (-72.746048 40.926095)
588,"Cumberland Farms, Inc.",660 Islip Ave,Brentwood,NY,11717,40.756993,-73.209933,Transfer Switch Only,POINT (-73.209933 40.756993)
620,"Cumberland Farms, Inc.",500 Atlantic Av,East Rockaway,NY,11518,40.641682,-73.665165,Transfer Switch Only,POINT (-73.665165 40.641682)
839,Warex Terminals Corporation,601 E Fordham Rd,Bronx,NY,10458,40.858675,-73.884962,Transfer Switch Only,POINT (-73.884962 40.858675)
918,Petrogas Group,797 Old Country Rd,Plainview,NY,11803,40.773059,-73.483556,Transfer Switch Only,POINT (-73.483556 40.773059)
703,Gaseteria Oil Corp,40-08 30th Ave,Queens,NY,11103,40.763602,-73.914611,Transfer Switch Only,POINT (-73.914611 40.763602)
752,Apol Service Station,1210 Grand Avenue,Baldwin,NY,11510,40.681127,-73.615277,Transfer Switch Only,POINT (-73.615277 40.681127)
803,GCP 188th Realty Corp,196-03 Grand Central Pkwy,Queens,NY,11423,40.725113,-73.771783,Transfer Switch Only,POINT (-73.771783 40.725113)
126,1258 Middle Country Realty LLC,1258 Middle Country Road,Selden,NY,11720,40.862238,-73.056623,Permanent Generator,POINT (-73.056623 40.862238)
345,BP Products North America Inc.,239 Union Avenue,Brooklyn,NY,11211,40.707781,-73.950829,Transfer Switch Only,POINT (-73.950829 40.707781)
935,HMF Premium Fuels Inc.,880 Conklin Street,Farmingdale,NY,11735,40.736221,-73.429852,Transfer Switch and Generator,POINT (-73.429852 40.736221)
358,BP Products North America Inc.,255 East 125th Street,New York,NY,10035,40.803088,-73.933728,Transfer Switch Only,POINT (-73.933728 40.803088)
197,Hess Corporation,301 Union Blvd,Holbrook,NY,11741,40.812283,-73.080816,Transfer Switch Only,POINT (-73.080816 40.812283)
950,Dirmak Inc.,248-02 Jericho Turnpike,Bellerose,NY,11426,40.725368,-73.719931,Transfer Switch and Generator,POINT (-73.719931 40.725368)
543,Yulica Petroleum Inc.,246-02 South Conduit Avenue,Queens,NY,11422,40.665216,-73.732566,Transfer Switch Only,POINT (-73.732566 40.665216)
461,"Sunoco, Inc. (R+M)",114 Broadhollow Road,Melville,NY,11747,40.789674,-73.415942,Transfer Switch Only,POINT (-73.415942 40.789674)
158,"Vincent Service Station, Inc.",636 Fenimore Road,Mamaroneck,NY,10543,40.951028,-73.743854,Transfer Switch Only,POINT (-73.743854 40.951028)
818,Atlantis Management Group II LLC,1 E 233 St,Bronx,NY,10470,40.895889,-73.876527,Transfer Switch Only,POINT (-73.876527 40.895889)
903,BP Products North America Inc.,204-12 Northern Boulevard,Queens,NY,11361,40.757551,-73.778406,Transfer Switch Only,POINT (-73.778406 40.757551)
560,Bill Wolf Petroleum Maintenance LLC,80 Old Shore Road,Port Washington,NY,11050,40.840728,-73.705146,Transfer Switch Only,POINT (-73.705146 40.840728)
639,"Cumberland Farms, Inc.",700 Nassau Boulevard,West Hempstead,NY,11552,40.68725,-73.6619,Transfer Switch Only,POINT (-73.6619 40.68725)
854,Best Service Station Inc.,2157-63 Amsterdam Avenue,New York,NY,10032,40.839002,-73.937064,Transfer Switch Only,POINT (-73.937064 40.839002)
190,Hess Corporation,214 Islip Avenue,Islip,NY,11751,40.738448,-73.207892,Transfer Switch Only,POINT (-73.207892 40.738448)
21,Alliance Energy LLC,154-02 Horace Harding Exp,Flushing,NY,11367,40.73834,-73.8147,Permanent Generator,POINT (-73.8147 40.73834)
422,Hess Corporation,2488 Hylan Boulevard,Staten Island,NY,10306,40.570806,-74.109079,Transfer Switch Only,POINT (-74.109079 40.570806)
871,Lotus Management Group NY Inc,1610 Bushwick Avenue,Brooklyn,NY,11207,40.680536,-73.903392,Transfer Switch Only,POINT (-73.903392 40.680536)
47,SRM Fuel Corp.,3936 10th Av,New York,NY,10034,40.866244,-73.917993,Permanent Generator,POINT (-73.917993 40.866244)
970,Sunrise 888 Inc.,820 Sunrise Hwy,Baldwin,NY,11510,40.655864,-73.605674,Transfer Switch and Generator,POINT (-73.605674 40.655864)
94,Bhavishya Gas Inc,5916 Foster Ave,Brooklyn,NY,11385,40.639781,-73.919778,Permanent Generator,POINT (-73.919778 40.639781)
607,"Cumberland Farms, Inc.",770 Montauk Highway,East Patchogue,NY,11772,40.767261,-72.986421,Transfer Switch Only,POINT (-72.986421 40.767261)
285,NY Fuel Distributors LLC,372 S Broadway,Tarrytown,NY,10591,41.063983,-73.862044,Transfer Switch Only,POINT (-73.862044 41.063983)
771,"Liberty Petroleum Realty, LLC",150-54 W 145th Street,New York,NY,10039,40.82086,-73.9382,Transfer Switch Only,POINT (-73.9382 40.82086)
882,Mercy Gas Inc,4220 Bronx Boulevard,Bronx,NY,10466,40.895168,-73.860621,Transfer Switch Only,POINT (-73.860621 40.895168)
417,Apache Oil Company Inc.,245 South Central Avenue,Hartsdale,NY,10530,41.012795,-73.806003,Transfer Switch Only,POINT (-73.806003 41.012795)
326,NJB Properties LLC.,2054 N Grand Av,Baldwin,NY,11510,40.660598,-73.607621,Transfer Switch Only,POINT (-73.607621 40.660598)
153,Duplex Inc,1310 Sunrise Hwy,Copiague,NY,11726,40.692362,-73.398764,Permanent Generator,POINT (-73.398764 40.692362)
229,Hess Corporation,530 Utica Avenue,Brooklyn,NY,11234,40.660357,-73.931566,Transfer Switch Only,POINT (-73.931566 40.660357)
290,Metro NY Dealer Stations LLC,185-25 North Conduit Avenue,Queens,NY,11413,40.66683,-73.757948,Transfer Switch Only,POINT (-73.757948 40.66683)
449,"Sunoco, Inc. (R+M)",1781 Arthur Kill Rd,Staten Island,NY,10312,40.558941,-74.198171,Transfer Switch Only,POINT (-74.198171 40.558941)
58,PMG Northeast LLC,2033 Middle Country Rd,Centereach,NY,11720,40.858806,-73.083754,Permanent Generator,POINT (-73.083754 40.858806)
317,Hess Corporation,159-02 Crossbay Boulevard,Queens,NY,11414,40.658982,-73.840269,Transfer Switch Only,POINT (-73.840269 40.658982)
79,174-02 Horace Harding Expressway Operating Corp,17402 Horace Harding,Fresh Meadows,NY,11365,40.73833,-73.794569,Permanent Generator,POINT (-73.794569 40.73833)
262,Busy Bee Stores Corp.,4625 Veterans Pkwy,Holbrook,NY,11741,40.782007,-73.08225,Transfer Switch Only,POINT (-73.08225 40.782007)
30,PMG Northeast LLC,345 Sunrise Highway,Rockville Center,NY,11570,40.65669,-73.640441,Permanent Generator,POINT (-73.640441 40.65669)
217,Hess Corporation,2880 Atlantic Avenue,Brooklyn,NY,11207,40.676927,-73.887954,Transfer Switch Only,POINT (-73.887954 40.676927)
476,Stop Associate Inlaid,257 Bayshore Road,Deer Park,NY,11729,40.744792,-73.31264,Transfer Switch Only,POINT (-73.31264 40.744792)
925,The Macchia Group Inc.,1206 Bellmore Avenue,North Bellmore,NY,11710,40.690175,-73.548738,Transfer Switch Only,POINT (-73.548738 40.690175)
493,Bill Wolf Petroleum Maintenance LLC,2001 Cropsey Avenue,Brooklyn,NY,11214,40.600179,-74.002425,Transfer Switch Only,POINT (-74.002425 40.600179)
165,American Petroleum Distributors LLC,76-19 21st Avenue,Queens,NY,11370,40.770695,-73.893079,Transfer Switch Only,POINT (-73.893079 40.770695)
757,"Big Apple Petroleum Realty, Llc",61-60 Woodhaven Boulevard,Queens,NY,11374,40.72717,-73.8713,Transfer Switch Only,POINT (-73.8713 40.72717)
790,Malverne Gas Inc.,1786 Deer Park Avenue,Deer Park,NY,11729,40.756866,-73.327636,Transfer Switch Only,POINT (-73.327636 40.756866)
180,Hess Corporation,113-07 Medford Av,Patchogue,NY,11772,40.769934,-73.007034,Transfer Switch Only,POINT (-73.007034 40.769934)
592,"Cumberland Farms, Inc.",1395 Veterans Memorial Hwy,Islandia,NY,11749,40.813068,-73.189255,Transfer Switch Only,POINT (-73.189255 40.813068)
444,Atlantis Management Group II LLC,3936 10th Av,New York,NY,10034,40.866244,-73.917993,Transfer Switch Only,POINT (-73.917993 40.866244)
322,West Bay Marketing LLC.,1692 Union Blvd,Bay Shore,NY,11706,40.724323,-73.251531,Transfer Switch Only,POINT (-73.251531 40.724323)
377,BP Products North America Inc.,1640 Flatbush Avenue,Brooklyn,NY,11210,40.630355,-73.945438,Transfer Switch Only,POINT (-73.945438 40.630355)
624,"Cumberland Farms, Inc.",566 Northern Boulevard,Lake Success,NY,11040,40.781535,-73.716993,Transfer Switch Only,POINT (-73.716993 40.781535)
212,Hess Corporation,56-01 Main Street,Queens,NY,11355,40.748152,-73.825588,Transfer Switch Only,POINT (-73.825588 40.748152)
647,"Cumberland Farms, Inc.",48 W Broad St,Mount Vernon,NY,10552,40.92609,-73.838,Transfer Switch Only,POINT (-73.838 40.92609)
254,Hess Corporation,89-10 Astoria Boulevard,Queens,NY,11369,40.763626,-73.879878,Transfer Switch Only,POINT (-73.879878 40.763626)
486,Premium Energy Inc.,642 Motor Parkway,Brentwood,NY,11717,40.806911,-73.24842,Transfer Switch Only,POINT (-73.24842 40.806911)
835,Williamsburg Service Center Inc.,713 Kent Avenue,Brooklyn,NY,11211,40.700067,-73.961193,Transfer Switch Only,POINT (-73.961193 40.700067)
107,JAV Petroleum,655 Broadway,Amityville,NY,11701,40.697744,-73.425021,Permanent Generator,POINT (-73.425021 40.697744)
239,Hess Corporation,152 Pulaski Road,Kings Park,NY,11754,40.884208,-73.262667,Transfer Switch Only,POINT (-73.262667 40.884208)
122,"Gasoline Heaven at Commack, Inc.",2088 Jericho Turnpike,Commack,NY,11725,40.844125,-73.277031,Permanent Generator,POINT (-73.277031 40.844125)
515,East End Marketing,940 S Main St,Farmingdale,NY,11735,40.711189,-73.429804,Transfer Switch Only,POINT (-73.429804 40.711189)
938,"Tarrytown Snack Mart, Inc.",440 South Broadway,Tarrytown,NY,10591,41.061661,-73.861822,Transfer Switch and Generator,POINT (-73.861822 41.061661)
349,BP Products North America Inc.,401 E 80 St,Brooklyn,NY,11236,40.64103,-73.919006,Transfer Switch Only,POINT (-73.919006 40.64103)
575,"Cumberland Farms, Inc.",3239 Sunrise Highway,Islip Terrace,NY,11752,40.747063,-73.174819,Transfer Switch Only,POINT (-73.174819 40.747063)
807,Gaseteria Oil Corp,1862 Webster Avenue,Bronx,NY,10457,40.846697,-73.902022,Transfer Switch Only,POINT (-73.902022 40.846697)
85,Gaseteria Oil Corp,154-09 Union Turnpike,Flushing,NY,11367,40.720033,-73.809456,Permanent Generator,POINT (-73.809456 40.720033)
354,BP Products North America Inc.,119-01 Atlantic Avenue,Queens,NY,11418,40.694439,-73.827989,Transfer Switch Only,POINT (-73.827989 40.694439)
967,Haver Inc/dba/bp,239 Carlton Avenue,East Islip,NY,11730,40.74123,-73.192444,Transfer Switch and Generator,POINT (-73.192444 40.74123)
822,Atlantis Management Group II LLC,296 West Fordham Road,Bronx,NY,10468,40.861594,-73.912402,Transfer Switch Only,POINT (-73.912402 40.861594)
906,"Certified Heating Oils, Inc.",5205 Hylan Boulevard,Staten Island,NY,10312,40.526364,-74.180129,Transfer Switch Only,POINT (-74.180129 40.526364)
481,Bolla Operating Corp.,6201 Avenue U,Brooklyn,NY,11234,40.615864,-73.913865,Transfer Switch Only,POINT (-73.913865 40.615864)
603,"Cumberland Farms, Inc.",743 Walt Whitman Road,Melville,NY,11747,40.803815,-73.410882,Transfer Switch Only,POINT (-73.410882 40.803815)
982,Bolla Operating Corp.,1702 Neptune Avenue,Brooklyn,NY,11224,40.578645,-73.985706,Transfer Switch Only,POINT (-73.985706 40.578645)
767,"East River Petroleum Realty, Llc",68-09 Queens Blvd,Queens,NY,11377,40.74077,-73.8962,Transfer Switch Only,POINT (-73.8962 40.74077)
148,Chris's Service Center,1001 Atlantic Ave,Baldwin,NY,11510,40.640489,-73.604817,Permanent Generator,POINT (-73.604817 40.640489)
398,Bolla Operating LI Corp,1225 Fulton Avenue,Uniondale,NY,11553,40.718523,-73.590114,Transfer Switch Only,POINT (-73.590114 40.718523)
688,"Cumberland Farms, Inc.",223-15 Union Turnpike,Queens,NY,11364,40.735996,-73.747043,Transfer Switch Only,POINT (-73.747043 40.735996)
281,NY Fuel Distributors LLC,1208 Oregon Road,Cortlandt Manor,NY,10567,41.331498,-73.876031,Transfer Switch Only,POINT (-73.876031 41.331498)
62,Gaseteria Oil Corp,97-44 Sutphin Blvd,Jamaica,NY,11435,40.696278,-73.80492,Permanent Generator,POINT (-73.80492 40.696278)
635,"Cumberland Farms, Inc.",325 South Oyster Bay Road,Plainview,NY,11803,40.787051,-73.503063,Transfer Switch Only,POINT (-73.503063 40.787051)
878,Harmony Auto Service Inc.,184-17 Horace Harding Expy,Queens,NY,11365,40.740532,-73.789855,Transfer Switch Only,POINT (-73.789855 40.740532)
693,"Cumberland Farms, Inc.",595 Northern Blv,Great Neck,NY,11020,40.782052,-73.717461,Transfer Switch Only,POINT (-73.717461 40.782052)
735,General Motors of NY Inc.,53-26 Van Dam Street,Queens,NY,11101,40.734855,-73.938164,Transfer Switch Only,POINT (-73.938164 40.734855)
222,Hess Corporation,1620 Neptune Av,Brooklyn,NY,11224,40.578708,-73.98491,Transfer Switch Only,POINT (-73.98491 40.578708)
294,Metro NY Dealer Stations LLC,170 Veterans Memorial Hwy,Commack,NY,11725,40.838457,-73.278967,Transfer Switch Only,POINT (-73.278967 40.838457)
957,Aksu Gas Corp.,2290 Great Neck Road,Copiague,NY,11726,40.68435,-73.4008,Transfer Switch and Generator,POINT (-73.4008 40.68435)
867,Lotus Management Group NY Inc,350 Grand Concourse,Bronx,NY,10451,40.815676,-73.928255,Transfer Switch Only,POINT (-73.928255 40.815676)
454,"Sunoco, Inc. (R+M)",104 Franklin Av,Valley Stream,NY,11580,40.676682,-73.683439,Transfer Switch Only,POINT (-73.683439 40.676682)
133,110 Petroleum Corp,1100 Broadway,Farmingdale,NY,11735,40.709801,-73.429073,Permanent Generator,POINT (-73.429073 40.709801)
775,"Big Apple Petroleum Realty, LLC",44-02 Astoria Boulevard,Queens,NY,11103,40.76794,-73.906996,Transfer Switch Only,POINT (-73.906996 40.76794)
397,Bolla Operating LI Corp,100 Hicksville Road,Bethpage,NY,11714,40.72358,-73.486994,Transfer Switch Only,POINT (-73.486994 40.72358)
90,Genesis Petroleum Inc.,465 Nassau Road,Roosevelt,NY,11575,40.684456,-73.593011,Permanent Generator,POINT (-73.593011 40.684456)
134,Warex Terminals Corporation,3620 Queens Blvd.,Long Island City,NY,11101,40.743956,-73.928491,Permanent Generator,POINT (-73.928491 40.743956)
661,"Cumberland Farms, Inc.",695 Commack Road,Commack,NY,11725,40.805408,-73.295217,Transfer Switch Only,POINT (-73.295217 40.805408)
999,ATLANTIS MANAGEMENT GROUP II LLC,1245 Nepperhan Avenue,Yonkers,NY,10703,40.966303,-73.872528,Transfer Switch Only,POINT (-73.872528 40.966303)
412,Bolla EM Realty LLC,1022 Rockaway Avenue,Brooklyn,NY,11236,40.654258,-73.907417,Transfer Switch Only,POINT (-73.907417 40.654258)
989,CPD NY Energy Corp,215 North Broadway,Sleepy Hollow,NY,10591,41.083362,-73.859058,Transfer Switch Only,POINT (-73.859058 41.083362)
117,Leon Petroleum LLC,1878 Hempstead Turnpike,East Meadow,NY,11554,40.723781,-73.566938,Permanent Generator,POINT (-73.566938 40.723781)
244,"Courtesy Mobil Car Care Center, Inc.",19 Marble Av,Thornwood,NY,10594,41.12406,-73.78113,Transfer Switch Only,POINT (-73.78113 41.12406)
429,Global Montello Group LLC,1800 Central Park Avenue,Yonkers,NY,10710,40.960158,-73.840987,Transfer Switch Only,POINT (-73.840987 40.960158)
2,"OK Petroleum Distribution, Corp.",755 Deer Park Avenue,Babylon,NY,11702,40.720335,-73.322103,Permanent Generator,POINT (-73.322103 40.720335)
266,NY Fuel Distributors LLC,433 Knollwood Rd,White Plains,NY,10603,41.048414,-73.802751,Transfer Switch Only,POINT (-73.802751 41.048414)
850,Global Montello Group Corp.,4780 Boston Post Road,Pelham Manor,NY,10803,40.896401,-73.804224,Transfer Switch Only,POINT (-73.804224 40.896401)
508,Bill Wolf Petroleum Maintenance LLC,343 E Main St,Patchogue,NY,11772,40.766613,-73.003174,Transfer Switch Only,POINT (-73.003174 40.766613)
528,"Top Green, LLC",173-12 Hoarce Harding Expwy,Queens,NY,11365,40.737849,-73.795582,Transfer Switch Only,POINT (-73.795582 40.737849)
313,Metro NY Dealer Stations LLC,3365 Jerusalem Av,Wantagh,NY,11793,40.693817,-73.507271,Transfer Switch Only,POINT (-73.507271 40.693817)
75,GCP 188th Realty Corp,196-03 Grand Central Parkway,Hollis,NY,11423,40.725032,-73.771778,Permanent Generator,POINT (-73.771778 40.725032)
207,Hess Corporation,951 Bay Street,Staten Island,NY,10305,40.619332,-74.069807,Transfer Switch Only,POINT (-74.069807 40.619332)
308,Metro NY Dealer Stations LLC,1010 Walt Whitman Road,Melville,NY,11747,40.792966,-73.415934,Transfer Switch Only,POINT (-73.415934 40.792966)
293,Metro NY Dealer Stations LLC,168 Howells Rd,Bay Shore,NY,11706,40.731839,-73.272991,Transfer Switch Only,POINT (-73.272991 40.731839)
234,Hess Corporation,1275 Deer Park Avenue,North Babylon,NY,11703,40.739691,-73.320702,Transfer Switch Only,POINT (-73.320702 40.739691)
453,"Sunoco, Inc. (R+M)",555 North Broadway,White Plains,NY,10603,41.052524,-73.770376,Transfer Switch Only,POINT (-73.770376 41.052524)
7,PMG Northeast LLC,2351 Broadhollow Road,Farmingdale,NY,11735,40.754581,-73.421703,Permanent Generator,POINT (-73.421703 40.754581)
921,ATLANTIS MANAGEMENT GROUP II LLC,387 PORT RICHMOND AVE,STATEN ISLAND,NY,10302,40.63248,-74.137163,Transfer Switch Only,POINT (-74.137163 40.63248)
249,Hess Corporation,3072 Veterans Highway,Bohemia,NY,11716,40.787711,-73.137334,Transfer Switch Only,POINT (-73.137334 40.787711)
61,Gaseteria Oil Corp,218-01 Northern Boulevard,Bayside,NY,11361,40.761468,-73.763672,Permanent Generator,POINT (-73.763672 40.761468)
381,CC244LLC,244 Linden Blvd,Elmont,NY,11003,40.688627,-73.720314,Transfer Switch Only,POINT (-73.720314 40.688627)
118,Bolla Operating LI Corp,2209 Jericho Tpke,Commack,NY,11725,40.842647,-73.289359,Permanent Generator,POINT (-73.289359 40.842647)
513,Bill Wolf Petroleum Maintenance LLC,364 Nepperhan Av,Yonkers,NY,10701,40.939055,-73.885724,Transfer Switch Only,POINT (-73.885724 40.939055)
943,Apache Oil Company Inc.,179 Old White Plains Rd,Tarrytown,NY,10591,41.062823,-73.836715,Transfer Switch and Generator,POINT (-73.836715 41.062823)
440,Global Montello Group LLC,67 Quaker Ridge Rd,New Rochelle,NY,10804,40.948519,-73.793184,Transfer Switch Only,POINT (-73.793184 40.948519)
679,"Cumberland Farms, Inc.",91-11 Roosevelt Avenue,Queens,NY,11377,40.748902,-73.875096,Transfer Switch Only,POINT (-73.875096 40.748902)
271,NY Fuel Distributors LLC,930 E Main St,Shrub Oak,NY,10588,41.331174,-73.821563,Transfer Switch Only,POINT (-73.821563 41.331174)
530,LI Gas Station Management Inc.,1992 Middle Country Rd,Centereach,NY,11720,40.858057,-73.082734,Transfer Switch Only,POINT (-73.082734 40.858057)
662,"Cumberland Farms, Inc.",1889 Route 112,Coram,NY,11727,40.891736,-73.014252,Transfer Switch Only,POINT (-73.014252 40.891736)
547,Mount Petroleum Corp.,231 Walt Whitman Road,Huntington,NY,11743,40.8212833333333,-73.4126333333333,Transfer Switch Only,POINT (-73.4126333333333 40.8212833333333)
794,"Vandale Motors, Inc.",5832 Broadway,Bronx,NY,10463,40.885492,-73.900006,Transfer Switch Only,POINT (-73.900006 40.885492)
926,Hi Gas Corp,624 Broadway,Amityville,NY,11701,40.696504,-73.425123,Transfer Switch Only,POINT (-73.425123 40.696504)
86,Gaseteria Oil Corp,40-08 30th Ave,Astoria,NY,11103,40.763602,-73.914611,Permanent Generator,POINT (-73.914611 40.763602)
202,Hess Corporation,11100 Main Rd,Mattituck,NY,11952,40.986751,-72.536124,Transfer Switch Only,POINT (-72.536124 40.986751)
762,"East River Petroleum Realty, Llc",113-21 Rockaway Blvd,Queens,NY,11420,40.67735,-73.8247,Transfer Switch Only,POINT (-73.8247 40.67735)
811,Croton Food Mart Inc,2030 Albany Post Road,Croton On Hudson,NY,10520,41.232319,-73.91373,Transfer Switch Only,POINT (-73.91373 41.232319)
382,JFK AP LLC,Building 125 JFK Airport,Queens,NY,11430,40.662183,-73.793578,Transfer Switch Only,POINT (-73.793578 40.662183)
221,Hess Corporation,810 Metropolitan Avenue,Brooklyn,NY,11211,40.714584,-73.94167,Transfer Switch Only,POINT (-73.94167 40.714584)
367,BP Products North America Inc.,114-02 Van Wyck Expressway,Queens,NY,11420,40.682626,-73.806373,Transfer Switch Only,POINT (-73.806373 40.682626)
535,Fast Gasonline Station Inc,4305 Austin Blvd,Island Park,NY,11558,40.604472,-73.650029,Transfer Switch Only,POINT (-73.650029 40.604472)
103,"Milton P. Enstine & Son, Inc.",635 Hill Street,Southampton,NY,11968,40.884403,-72.415828,Permanent Generator,POINT (-72.415828 40.884403)
715,Valley Gas Inc.,6937 Amboy Road,Staten Island,NY,10309,40.517379,-74.232083,Transfer Switch Only,POINT (-74.232083 40.517379)
799,MD South Realty Corp,71 Major Deegan Expressway,Bronx,NY,10470,40.89508,-73.881443,Transfer Switch Only,POINT (-73.881443 40.89508)
335,BP Products North America Inc.,91 Westchester Square,Bronx,NY,10461,40.840903,-73.840984,Transfer Switch Only,POINT (-73.840984 40.840903)
911,"Great Neck Savvy Service, Inc.",605 Northern Blvd.,Great Neck,NY,11021,40.782449,-73.71683,Transfer Switch Only,POINT (-73.71683 40.782449)
958,2000 North Corp.,2000 County Road 39 Street,Southampton,NY,11968,40.89492,-72.466098,Transfer Switch and Generator,POINT (-72.466098 40.89492)
895,Atlantis Management Group II LLC,85 Church St,Ronkonkoma,NY,11779,40.817381,-73.113012,Transfer Switch Only,POINT (-73.113012 40.817381)
747,S&T Oil Company,1515 Broadway Avenue,Holbrook,NY,11741,40.802933,-73.069067,Transfer Switch Only,POINT (-73.069067 40.802933)
826,Atlantis Management Group II LLC,1049 Grand Street,Brooklyn,NY,11211,40.713964,-73.933734,Transfer Switch Only,POINT (-73.933734 40.713964)
779,"East River Petroleum Realty, LLC",49-21 Queens Boulevard,Queens,NY,11377,40.743179,-73.915081,Transfer Switch Only,POINT (-73.915081 40.743179)
953,Hughes Motors Corp,493 Central Park Avenue,Yonkers,NY,10704,40.920634,-73.866849,Transfer Switch and Generator,POINT (-73.866849 40.920634)
303,Metro NY Dealer Stations LLC,701 Rt 111,Central Islip,NY,11722,40.75723,-73.209213,Transfer Switch Only,POINT (-73.209213 40.75723)
261,Busy Bee Stores Corp.,445 W Jericho Tpk,Huntington Station,NY,11743,40.836079,-73.184879,Transfer Switch Only,POINT (-73.184879 40.836079)
863,Satguru Gas Inc.,166-15 Horace Harding Expy,Queens,NY,11365,40.738817,-73.802211,Transfer Switch Only,POINT (-73.802211 40.738817)
350,BP Products North America Inc.,248-70 Horace Harding Expy,Queens,NY,11362,40.760125,-73.731954,Transfer Switch Only,POINT (-73.731954 40.760125)
29,PMG Northeast LLC,101 Hempstead Turnpike,Elmont,NY,11003,40.709197,-73.722933,Permanent Generator,POINT (-73.722933 40.709197)
39,Baychester Petroleum LLC,3804 Boston rd,Bronx,NY,10475,40.881162,-73.838166,Permanent Generator,POINT (-73.838166 40.881162)
599,"Cumberland Farms, Inc.",3775 Expressway Drive North,Islandia,NY,11749,40.81042,-73.158353,Transfer Switch Only,POINT (-73.158353 40.81042)
161,"Certified Heating Oils, Inc.",1810 Forest Av,Staten Island,NY,10303,40.624936,-74.149149,Transfer Switch Only,POINT (-74.149149 40.624936)
821,Atlantis Management Group II LLC,3804 Boston Road,Bronx,NY,10475,40.881162,-73.838166,Transfer Switch Only,POINT (-73.838166 40.881162)
562,Gas N Go Bronx Inc,250 Jackson Av,Bronx,NY,10454,40.805033,-73.912389,Transfer Switch Only,POINT (-73.912389 40.805033)
393,Hess Corporation,2121 Forest Avenue,Staten Island,NY,10303,40.626889,-74.160183,Transfer Switch Only,POINT (-74.160183 40.626889)
298,Metro NY Dealer Stations LLC,9612 Seaview Avenue,Brooklyn,NY,11236,40.633413,-73.889922,Transfer Switch Only,POINT (-73.889922 40.633413)
71,HO 110 Inc.,1350 Route 110,Farmingdale,NY,11735,40.738118,-73.423693,Permanent Generator,POINT (-73.423693 40.738118)
425,Global Montello Group LLC,2590 Bailey Avenue,Bronx,NY,10463,40.869212,-73.907281,Transfer Switch Only,POINT (-73.907281 40.869212)
193,Hess Corporation,776 N Bedford Rd,Bedford Hills,NY,10507,41.22216,-73.715168,Transfer Switch Only,POINT (-73.715168 41.22216)
408,Bolla Operating LI Corp,372 Middle Country Road,Coram,NY,11727,40.869164,-73.000118,Transfer Switch Only,POINT (-73.000118 40.869164)
694,"Cumberland Farms, Inc.",285 North Broadway,Hicksville,NY,11801,40.778117,-73.52958,Transfer Switch Only,POINT (-73.52958 40.778117)
631,"Cumberland Farms, Inc.",101 Hempstead Turnpike,Elmont,NY,11003,40.709197,-73.722933,Transfer Switch Only,POINT (-73.722933 40.709197)
430,Global Montello Group LLC,570 Sunrise Hwy,West Islip,NY,11795,40.724529,-73.2899,Transfer Switch Only,POINT (-73.2899 40.724529)
276,NY Fuel Distributors LLC,1929 Bruckner Boulevard,Bronx,NY,10472,40.826654,-73.858354,Transfer Switch Only,POINT (-73.858354 40.826654)
789,Wave Service Inc.,455 Waverly Avenue,Patchogue,NY,11772,40.78039,-73.034002,Transfer Switch Only,POINT (-73.034002 40.78039)
22,Bolla EM Realty LLC,2816 Atlantic Ave,Brooklyn,NY,11207,40.676429,-73.890042,Permanent Generator,POINT (-73.890042 40.676429)
138,PMG Northeast LLC,130 Main Street,Amagansett,NY,11930,40.973706,-72.143019,Permanent Generator,POINT (-72.143019 40.973706)
166,East End Marketing,125 County Rd 51,Eastport,NY,11941,40.836072,-72.744754,Transfer Switch Only,POINT (-72.744754 40.836072)
816,Three Brothers And Nephew Corp,1550 W Service Rd,Staten Island,NY,10314,40.558054,-74.206853,Transfer Switch Only,POINT (-74.206853 40.558054)
730,LUKOIL North America LLC,170 Bayshore Road,North Babylon,NY,11703,40.747177,-73.319003,Transfer Switch Only,POINT (-73.319003 40.747177)
34,C & S Oil Corp,2665 Hempstead Turnpike,Levittown,NY,11756,40.724688,-73.536871,Permanent Generator,POINT (-73.536871 40.724688)
93,Hill Enterprise Inc,3818 Sunrise Highway,Seaford,NY,11783,40.674106,-73.491258,Permanent Generator,POINT (-73.491258 40.674106)
917,Kazi Inc.,900 North Broadway,Massapequa,NY,11758,40.700872,-73.462228,Transfer Switch Only,POINT (-73.462228 40.700872)
468,"Sunoco, Inc. (R+M)",2701 Knapp Street,Brooklyn,NY,11235,40.588013,-73.931409,Transfer Switch Only,POINT (-73.931409 40.588013)
230,Hess Corporation,1201 Webster Avenue,Bronx,NY,10456,40.832136,-73.909972,Transfer Switch Only,POINT (-73.909972 40.832136)
848,Global Montello Group Corp.,2 Montauk Highway,East Hampton,NY,11937,40.954849,-72.203807,Transfer Switch Only,POINT (-72.203807 40.954849)
567,Super Value NY Inc.,68 E Rt 59,Spring Valley,NY,10977,41.105689,-74.033285,Transfer Switch Only,POINT (-74.033285 41.105689)
485,Star Advantage Energy Inc.,482 Sills Rd,Yaphank,NY,11980,40.831,-72.9378833333,Transfer Switch Only,POINT (-72.9378833333 40.831)
253,Hess Corporation,615 Smithtown Bypass,Smithtown,NY,11787,40.836079,-73.184879,Transfer Switch Only,POINT (-73.184879 40.836079)
198,Hess Corporation,239 W Montauk Hwy,Hampton Bays,NY,11946,40.865894,-72.549112,Transfer Switch Only,POINT (-72.549112 40.865894)
362,BP Products North America Inc.,107-10 Astoria Boulevard,Queens,NY,11369,40.760484,-73.862027,Transfer Switch Only,POINT (-73.862027 40.760484)
66,NoR-SPRING SERVICE STATION INC,79-10 Springfield Blvd,Oakland Gardens,NY,11364,40.735996,-73.747043,Permanent Generator,POINT (-73.747043 40.735996)
626,"Cumberland Farms, Inc.",345 Sunrise Highway,Rockville Centre,NY,11570,40.65669,-73.640441,Transfer Switch Only,POINT (-73.640441 40.65669)
880,Super Fast Inc,4711 3rd Av,Bronx,NY,10458,40.85925,-73.891325,Transfer Switch Only,POINT (-73.891325 40.85925)
853,Sanam Food & Fuel Inc.,283 West Main Street,Patchogue,NY,11772,40.764561,-73.02428,Transfer Switch Only,POINT (-73.02428 40.764561)
436,Global Montello Group LLC,655 Port Washington Boulevard,Port Washington,NY,11050,40.825766,-73.682631,Transfer Switch Only,POINT (-73.682631 40.825766)
98,Melville Fuel Inc,728 Walt Whitman Rd,Melville,NY,11747,40.803817,-73.411002,Permanent Generator,POINT (-73.411002 40.803817)
330,Hess Corporation,800 Jericho Turnpike,Westbury,NY,11590,40.7715,-73.576113,Transfer Switch Only,POINT (-73.576113 40.7715)
666,"Cumberland Farms, Inc.",Exit 61 LIE NWC,Holbrook,NY,11741,40.816425,-73.086146,Transfer Switch Only,POINT (-73.086146 40.816425)
584,"Cumberland Farms, Inc.",4909 Sunrise Highway,Bohemia,NY,11716,40.75972,-73.102832,Transfer Switch Only,POINT (-73.102832 40.75972)
523,East End Marketing,1563 Main Rd,Jamesport,NY,11947,40.949234,-72.581553,Transfer Switch Only,POINT (-72.581553 40.949234)
831,"East River Petroleum Realty, LLC",69-08 Eliot Avenue,Queens,NY,11379,40.719445,-73.890726,Transfer Switch Only,POINT (-73.890726 40.719445)
890,175-33 Horace Harding Expwy Service Center Corp.,175-33 Horace Harding Expy,Queens,NY,11365,40.739588,-73.793256,Transfer Switch Only,POINT (-73.793256 40.739588)
462,"Sunoco, Inc. (R+M)",49-05 Astoria Boulevard,Queens,NY,11370,40.767863,-73.901014,Transfer Switch Only,POINT (-73.901014 40.767863)
494,Bill Wolf Petroleum Maintenance LLC,119 Bruckner Boulevard,Bronx,NY,10454,40.804661,-73.921681,Transfer Switch Only,POINT (-73.921681 40.804661)
758,AAMA Auto Service Inc,274 Hamilton Av,White Plains,NY,10601,41.03412,-73.7684,Transfer Switch Only,POINT (-73.7684 41.03412)
683,"Cumberland Farms, Inc.",118-11 Atlantic Avenue,Queens,NY,11418,40.694362,-73.828482,Transfer Switch Only,POINT (-73.828482 40.694362)
552,Davison Petroleum Corp.,160 Davison Av,Oceanside,NY,11572,40.6417166667,-73.6335833333,Transfer Switch Only,POINT (-73.6335833333 40.6417166667)
711,Melville Fuel Inc.,728 Walt Whitman Rd,Melville,NY,11747,40.803811,-73.410879,Transfer Switch Only,POINT (-73.410879 40.803811)
457,"Sunoco, Inc. (R+M)",993 Willis Avenue,Albertson,NY,11507,40.770999,-73.649113,Transfer Switch Only,POINT (-73.649113 40.770999)
843,Genesis Petroleum Inc,616 Broadway,Amityville,NY,11701,40.695335,-73.424558,Transfer Switch Only,POINT (-73.424558 40.695335)
325,West Bay Marketing LLC.,226 Islip Avenue,Islip,NY,11751,40.738452,-73.207898,Transfer Switch Only,POINT (-73.207898 40.738452)
975,Bolla EM Realty LLC,2525 Victory Boulevard,Staten Island,NY,10314,40.610401,-74.147352,Transfer Switch Only,POINT (-74.147352 40.610401)
286,NY Fuel Distributors LLC,414 McLean Av,Yonkers,NY,10705,40.91128,-73.885577,Transfer Switch Only,POINT (-73.885577 40.91128)
225,Hess Corporation,1885 Atlantic Avenue,Brooklyn,NY,11233,40.67726,-73.922118,Transfer Switch Only,POINT (-73.922118 40.67726)
520,East End Marketing,355 Bayshore Road,Deer Park,NY,11729,40.742961,-73.30899,Transfer Switch Only,POINT (-73.30899 40.742961)
743,23 Ludlam Fuel,23 Ludlam Av,Bayville,NY,11709,40.906055,-73.549097,Transfer Switch Only,POINT (-73.549097 40.906055)
579,"Cumberland Farms, Inc.",1610 Round Swamp Rd,Plainview,NY,11803,40.784608,-73.445394,Transfer Switch Only,POINT (-73.445394 40.784608)
698,Gaseteria Oil Corp,218-01 Northern Blvd,Queens,NY,11361,40.761468,-73.763672,Transfer Switch Only,POINT (-73.763672 40.761468)
875,V V N Inc.,274 N Broadway,Hicksville,NY,11801,40.777815,-73.530555,Transfer Switch Only,POINT (-73.530555 40.777815)
318,Hess Corporation,1801 North Ocean Avenue,Farmingville,NY,11738,40.824957,-73.020024,Transfer Switch Only,POINT (-73.020024 40.824957)
651,"Cumberland Farms, Inc.",225 Willis Avenue,Roslyn Heights,NY,11577,40.784214,-73.649491,Transfer Switch Only,POINT (-73.649491 40.784214)
949,White Plains Service Station Inc.,417 Mamaroneck Avenue,White Plains,NY,10605,41.023528,-73.761121,Transfer Switch and Generator,POINT (-73.761121 41.023528)
157,Merrick Bellmore Service Center Inc.,2801 Merrick Road,Bellmore,NY,11710,40.664611,-73.522247,Permanent Generator,POINT (-73.522247 40.664611)
616,"Cumberland Farms, Inc.",635 Main St,New Rochelle,NY,10801,40.906426,-73.785778,Transfer Switch Only,POINT (-73.785778 40.906426)
726,LUKOIL North America LLC,510 Scranton Av,Lynbrook,NY,11563,40.649113,-73.675814,Transfer Switch Only,POINT (-73.675814 40.649113)
981,Bolla Operating Corp.,375 Hamilton Avenue,Brooklyn,NY,11231,40.673168,-73.99882,Transfer Switch Only,POINT (-73.99882 40.673168)
404,Sunny Gas Stop Inc.,1310 5th Av,Bay Shore,NY,11706,40.734304,-73.262603,Transfer Switch Only,POINT (-73.262603 40.734304)
10,PMG Northeast LLC,892 Wantagh Ave,Wantagh,NY,11791,40.702024,-73.506006,Permanent Generator,POINT (-73.506006 40.702024)
189,Hess Corporation,104-09 Atlantic Avenue,Queens,NY,11418,40.690762,-73.840751,Transfer Switch Only,POINT (-73.840751 40.690762)
1007,South Columbus Realty LLC,767 South Columbus Avenue,Mount Vernon,NY,10550,40.894013,-73.824207,Transfer Switch Only,POINT (-73.824207 40.894013)
389,Tayco Enterprises Inc.,2243 Route 112,Medford,NY,11763,40.813592,-73.000701,Transfer Switch Only,POINT (-73.000701 40.813592)
54,Gaseteria Oil Corp,99-49 Horace Harding Expressway,Flushing,NY,11368,40.736676,-73.857219,Permanent Generator,POINT (-73.857219 40.736676)
357,BP Products North America Inc.,470 Grand Avenue,South Hempstead,NY,11550,40.683504,-73.615502,Transfer Switch Only,POINT (-73.615502 40.683504)
170,K Gas & Convenience LLC,1970 Deer Park Avenue,Deer Park,NY,11729,40.765207,-73.331173,Transfer Switch Only,POINT (-73.331173 40.765207)
594,"Cumberland Farms, Inc.",5106 Express Drive South,Holbrook,NY,11741,40.814274,-73.083565,Transfer Switch Only,POINT (-73.083565 40.814274)
142,4201 Webster Realty LLC,4201 Webster Ave,Bronx,NY,10470,40.895785,-73.863652,Permanent Generator,POINT (-73.863652 40.895785)
870,Lotus Management Group NY Inc,466 10th Avenue,New York,NY,10018,40.756005,-73.997716,Transfer Switch Only,POINT (-73.997716 40.756005)
611,"Cumberland Farms, Inc.",50 W Jericho Tpk,Huntington Station,NY,11746,40.828062,-73.411991,Transfer Switch Only,POINT (-73.411991 40.828062)
784,"East River Petroleum Realty, LLC",181-08 Hoarce Harding Exp,Queens,NY,11365,40.738714,-73.792436,Transfer Switch Only,POINT (-73.792436 40.738714)
421,Bolla Operating Corp.,231 Bay St,Staten Island,NY,10301,40.63637,-74.075594,Transfer Switch Only,POINT (-74.075594 40.63637)
500,Bill Wolf Petroleum Maintenance LLC,1845 Webster Av,Bronx,NY,10457,40.84676,-73.901878,Transfer Switch Only,POINT (-73.901878 40.84676)
990,CPD NY Energy Corp,2072 E Main St,Cortlandt Manor,NY,10567,41.301287,-73.883078,Transfer Switch Only,POINT (-73.883078 41.301287)
858,Hamilton Gas & Convenience Inc.,327 Hamilton Avenue,Brooklyn,NY,11231,40.67497,-74.000063,Transfer Switch Only,POINT (-74.000063 40.67497)
110,"Leon Petroleum, LLC",1470 Middle Country Road,Ridge,NY,11953,40.894628,-72.888821,Permanent Generator,POINT (-72.888821 40.894628)
329,Hess Corporation,2265 Broad Hollow Road,Farmingdale,NY,11735,40.753758,-73.421749,Transfer Switch Only,POINT (-73.421749 40.753758)
472,"Sunoco, Inc. (R+M)",6102 4th Av,Brooklyn,NY,11220,40.64026,-74.019426,Transfer Switch Only,POINT (-74.019426 40.64026)
257,"Hugh C. Hackett, Inc.",1128 Route 112,Port Jefferson Station,NY,11776,40.918979,-73.039734,Transfer Switch Only,POINT (-73.039734 40.918979)
885,Chand Springfield Corp.,2525 3rd Av,Bronx,NY,10451,40.810916,-73.927988,Transfer Switch Only,POINT (-73.927988 40.810916)
489,Bill Wolf Petroleum Maintenance LLC,1532 Bushwick Avenue,Brooklyn,NY,11207,40.68209,-73.905569,Transfer Switch Only,POINT (-73.905569 40.68209)
125,Bolla Operating Corp.,5808 Flatlands Avenue,Brooklyn,NY,11234,40.630842,-73.919809,Permanent Generator,POINT (-73.919809 40.630842)
226,Hess Corporation,500 Remsen Avenue,Brooklyn,NY,11236,40.653975,-73.921658,Transfer Switch Only,POINT (-73.921658 40.653975)
340,BP Products North America Inc.,381 North Av,New Rochelle,NY,10801,40.915502,-73.784772,Transfer Switch Only,POINT (-73.784772 40.915502)
934,Peekskill Food & Gas Inc.,800 N Division St,Peekskill,NY,10566,41.302563,-73.915713,Transfer Switch and Generator,POINT (-73.915713 41.302563)
78,Bolla Operating LI Corp,1340 Motor Parkway,Islandia,NY,11749,40.80835,-73.19249,Permanent Generator,POINT (-73.19249 40.80835)
555,Bill Wolf Petroleum Maintenance LLC,1143 Clarkson Avenue,Brooklyn,NY,11212,40.661251,-73.920611,Transfer Switch Only,POINT (-73.920611 40.661251)
754,"Big Apple Petroleum Realty, Llc",154-02 Horace Harding Expy,Queens,NY,11367,40.73834,-73.8147,Transfer Switch Only,POINT (-73.8147 40.73834)
194,Hess Corporation,870 Route 58,Riverhead,NY,11901,40.934611,-72.669939,Transfer Switch Only,POINT (-72.669939 40.934611)
538,Shop & Save Inc.,1901 Deer Park Avenue,Deer Park,NY,11729,40.761679,-73.328883,Transfer Switch Only,POINT (-73.328883 40.761679)
670,"Cumberland Farms, Inc.",2399 Jericho Turnpike,Garden City Park,NY,11040,40.742508,-73.66093,Transfer Switch Only,POINT (-73.66093 40.742508)
902,JS Petroleum & Food Corp.,176 McGuiness Boulevard,Brooklyn,NY,11222,40.728586,-73.95015,Transfer Switch Only,POINT (-73.95015 40.728586)
687,"Cumberland Farms, Inc.",18-10 Utopia Parkway,Queens,NY,11357,40.780666,-73.794407,Transfer Switch Only,POINT (-73.794407 40.780666)
477,S M Enterprises Inc.,1171 Sunrise Hwy,Bay Shore,NY,11706,40.732573,-73.265874,Transfer Switch Only,POINT (-73.265874 40.732573)
643,"Cumberland Farms, Inc.",236-01 Linden Blv,Elmont,NY,11003,40.690783,-73.72552,Transfer Switch Only,POINT (-73.72552 40.690783)
527,"Sunergy New Rochelle, Inc",690 Main Street,New Rochelle,NY,10801,40.904452,-73.787764,Transfer Switch Only,POINT (-73.787764 40.904452)
638,"Cumberland Farms, Inc.",892 Wantagh Avenue,Wantagh,NY,11793,40.702024,-73.506006,Transfer Switch Only,POINT (-73.506006 40.702024)
490,Bill Wolf Petroleum Maintenance LLC,3046 Coney Island Av,Brooklyn,NY,11235,40.581584,-73.960278,Transfer Switch Only,POINT (-73.960278 40.581584)
591,"Cumberland Farms, Inc.",410 Wheeler Road,Hauppauge,NY,11788,40.809897,-73.217998,Transfer Switch Only,POINT (-73.217998 40.809897)
680,"Cumberland Farms, Inc.",138-19 Hillside Avenue,Queens,NY,11435,40.704617,-73.816015,Transfer Switch Only,POINT (-73.816015 40.704617)
971,C&S Oil Corporation,2665 Hempstead Tpk,Levittown,NY,11756,40.724688,-73.536871,Transfer Switch Only,POINT (-73.536871 40.724688)
548,Quality Fuel 1 Corp.,1235 Deer Park Avenue,North Babylon,NY,11703,40.7375,-73.3198333333333,Transfer Switch Only,POINT (-73.3198333333333 40.7375)
213,Hess Corporation,3501 Fort Hamilton Parkway,Brooklyn,NY,11218,40.64489,-73.987017,Transfer Switch Only,POINT (-73.987017 40.64489)
707,Arzu Petroleum Corp,153 E Main St,East Islip,NY,11730,40.732998,-73.183376,Transfer Switch Only,POINT (-73.183376 40.732998)
97,10th Ave Petroleum LLC,466 10th Ave,NY,NY,10018,40.756005,-73.997716,Permanent Generator,POINT (-73.997716 40.756005)
623,"Cumberland Farms, Inc.",499 Old Country Rd,Hicksville,NY,11801,40.7692,-73.501569,Transfer Switch Only,POINT (-73.501569 40.7692)
838,Warex Terminals Corporation,1917 Commerce Street,Yorktown Heights,NY,10598,41.274317,-73.780647,Transfer Switch Only,POINT (-73.780647 41.274317)
394,Bolla Operating Corp.,378 Coney Island Avenue,Brooklyn,NY,11218,40.6485,-73.97186,Transfer Switch Only,POINT (-73.97186 40.6485)
648,"Cumberland Farms, Inc.",765 Pennsylvania Avenue,Brooklyn,NY,11207,40.659174,-73.890566,Transfer Switch Only,POINT (-73.890566 40.659174)
998,Atlantis Management Group II LLC,626 West Main Street,Riverhead,NY,11901,40.918302,-72.673108,Transfer Switch Only,POINT (-72.673108 40.918302)
986,Merrick Bellmore Service Center Inc.,2801 Merrick Road,Bellmore,NY,11710,40.664611,-73.522247,Transfer Switch and Generator,POINT (-73.522247 40.664611)
702,Gaseteria Oil Corp,2326 1st Avenue,New York,NY,10035,40.79805,-73.933537,Transfer Switch Only,POINT (-73.933537 40.79805)
516,East End Marketing,112 Montauk Hwy,Westhampton Beach,NY,11978,40.82216,-72.646484,Transfer Switch Only,POINT (-72.646484 40.82216)
739,Windhorse Gas Station Inc,569 Myrtle Avenue,Brooklyn,NY,11205,40.694225,-73.961547,Transfer Switch Only,POINT (-73.961547 40.694225)
655,"Cumberland Farms, Inc.",154-11 Horace Harding Expy,Queens,NY,11367,40.73939,-73.814376,Transfer Switch Only,POINT (-73.814376 40.73939)
458,"Sunoco, Inc. (R+M)",71 Huguenot Street,New Rochelle,NY,10801,40.913711,-73.776391,Transfer Switch Only,POINT (-73.776391 40.913711)
985,"Wellwood Gas, Inc.",697 North Wellwood Avenue,Lindenhurst,NY,11757,40.703798,-73.386821,Transfer Switch Only,POINT (-73.386821 40.703798)
174,Main Broadway,902 Soundview Av,Bronx,NY,10473,40.823253,-73.867622,Transfer Switch Only,POINT (-73.867622 40.823253)
912,Hill Enterprise Inc,3818 Sunrise Highway,Seaford,NY,11783,40.674106,-73.491258,Transfer Switch Only,POINT (-73.491258 40.674106)
722,Super Value NY Inc.,422 Gramatan Ave,Mount Vernon,NY,10532,40.921813,-73.837603,Transfer Switch Only,POINT (-73.837603 40.921813)
14,Bolla Operating LI Corp,1220 Fulton Avenue,Uniondale,NY,11553,40.718523,-73.590114,Permanent Generator,POINT (-73.590114 40.718523)
130,Bolla Operating LI Corp,737 Montauk Highway,Shirley,NY,11967,40.800986,-72.87095,Permanent Generator,POINT (-72.87095 40.800986)
1003,Lotus Management Group NY Inc.,820 Hempstead Ave,West Hempstead,NY,11552,40.687596,-73.659477,Transfer Switch Only,POINT (-73.659477 40.687596)
570,Webster Oil Corp,1805 Webster Avenue,Bronx,NY,10457,40.845924,-73.902412,Transfer Switch Only,POINT (-73.902412 40.845924)
42,"OK Petroleum Distribution, Corp.",1862 5th Avenue,Brentwood,NY,11717,40.776791,-73.260221,Permanent Generator,POINT (-73.260221 40.776791)
780,"East River Petroleum Realty, LLC",35-15 Greenpoint Av,Queens,NY,11101,40.73775,-73.930815,Transfer Switch Only,POINT (-73.930815 40.73775)
372,BP Products North America Inc.,944 Central Park Avenue,Yonkers,NY,10704,40.934148,-73.855736,Transfer Switch Only,POINT (-73.855736 40.934148)
504,Bill Wolf Petroleum Maintenance LLC,1769 Arthur Kill Road,Staten Island,NY,10312,40.559363,-74.197622,Transfer Switch Only,POINT (-74.197622 40.559363)
606,"Cumberland Farms, Inc.",150 Morris Ave,Holtsville,NY,11742,40.819969,-73.059821,Transfer Switch Only,POINT (-73.059821 40.819969)
135,"Car Care of Manhasset, Inc",1111 Northern Blvd,"Manhasset, NY 11030",NY,11030,40.790003,-73.704403,Permanent Generator,POINT (-73.704403 40.790003)
74,Vandale Motors Inc.,5832 Broadway,Bronx,NY,10463,40.885581,-73.90001,Permanent Generator,POINT (-73.90001 40.885581)
129,PMG Northeast LLC,43 Glen Cove Road,Glen Cove,NY,11542,40.862324,-73.633607,Permanent Generator,POINT (-73.633607 40.862324)
344,BP Products North America Inc.,9111 4th Avenue,Brooklyn,NY,11209,40.618622,-74.029814,Transfer Switch Only,POINT (-74.029814 40.618622)
238,Hess Corporation,1797 Joshuas Path,Central Islip,NY,11722,40.787425,-73.220177,Transfer Switch Only,POINT (-73.220177 40.787425)
106,Global Montello Group Corp.,1880 Front Street,East Meadow,NY,11554,40.719601,-73.564167,Permanent Generator,POINT (-73.564167 40.719601)
245,"Farrow's Auto Service, Inc.",332 Manville Road,Pleasantville,NY,10570,41.135209,-73.790228,Transfer Switch Only,POINT (-73.790228 41.135209)
793,"Kirmani Petroleum, Inc.",569 North Avenue,New Rochelle,NY,10801,40.921563,-73.78749,Transfer Switch Only,POINT (-73.78749 40.921563)
3,Bolla Operating LI Corp,301 W. Merrick Road,Freeport,NY,11520,40.651821,-73.593562,Permanent Generator,POINT (-73.593562 40.651821)
939,Food and Gas of Ardsley Inc.,730 Saw Mill River Rd,Ardsley,NY,10502,41.013241,-73.846414,Transfer Switch and Generator,POINT (-73.846414 41.013241)
267,NY Fuel Distributors LLC,223 Boston Post Rd,Port Chester,NY,10573,40.996487,-73.669163,Transfer Switch Only,POINT (-73.669163 40.996487)
634,"Cumberland Farms, Inc.",1589 Merrick Road,Merrick,NY,11566,40.654154,-73.563117,Transfer Switch Only,POINT (-73.563117 40.654154)
361,BP Products North America Inc.,49-04 College Point Boulevard,Queens,NY,11355,40.752151,-73.8326,Transfer Switch Only,POINT (-73.8326 40.752151)
806,Jamaica Gas Corp.,784 Jamaica Avenue,Brooklyn,NY,11208,40.679712,-73.880213,Transfer Switch Only,POINT (-73.880213 40.679712)
206,Hess Corporation,117-08 Springfield Boulevard,Queens,NY,11411,40.696141,-73.743972,Transfer Switch Only,POINT (-73.743972 40.696141)
509,Bill Wolf Petroleum Maintenance LLC,145 Roslyn Road,Roslyn Heights,NY,11577,40.789522,-73.640945,Transfer Switch Only,POINT (-73.640945 40.789522)
312,Metro NY Dealer Stations LLC,195 Rt 25A,East Setauket,NY,11733,40.942166,-73.104862,Transfer Switch Only,POINT (-73.104862 40.942166)
922,The Macchia Group Inc.,243-02 South Conduit,Rosedale,NY,11422,40.665026,-73.735467,Transfer Switch Only,POINT (-73.735467 40.665026)
542,a r j gas n mart inc,4 Colonial Springs Rd,Wheatley Heights,NY,11798,40.756551,-73.374505,Transfer Switch Only,POINT (-73.374505 40.756551)
658,"Cumberland Farms, Inc.",82-48 Woodhaven Boulevard,Queens,NY,11385,40.702999,-73.855689,Transfer Switch Only,POINT (-73.855689 40.702999)
766,"East River Petroleum Realty, Llc",177-90 South Conduit Avenue,Queens,NY,11434,40.66649,-73.7677,Transfer Switch Only,POINT (-73.7677 40.66649)
399,Bolla Operating LI Corp,600 Old Country Rd,Hicksville,NY,11801,40.757175,-73.549179,Transfer Switch Only,POINT (-73.549179 40.757175)
559,Bill Wolf Petroleum Maintenance LLC,117 Morningside Avenue,New York,NY,10027,40.810803,-73.954226,Transfer Switch Only,POINT (-73.954226 40.810803)
675,"Cumberland Farms, Inc.",2441 Richmond Avenue,Staten Island,NY,10314,40.58829,-74.167379,Transfer Switch Only,POINT (-74.167379 40.58829)
531,North Broadway Automotive Services Inc,546 North Broadway,White Plains,NY,10603,41.052203,-73.769834,Transfer Switch Only,POINT (-73.769834 41.052203)
954,ARJ FUEL&OIL INC.,1755 Straight Path,Wyandanch,NY,11798,40.765783,-73.353036,Transfer Switch and Generator,POINT (-73.353036 40.765783)
774,A B Petro Inc,221 W Main St,Bay Shore,NY,11706,40.717715,-73.255573,Transfer Switch Only,POINT (-73.255573 40.717715)
795,"B & L GAS STATION ENTERPRISES, INC.",4001 4th Avenue,Brooklyn,NY,11232,40.651692,-74.006483,Transfer Switch Only,POINT (-74.006483 40.651692)
587,"Cumberland Farms, Inc.",539 Fort Salonga Road,Northport,NY,11768,40.893841,-73.33616,Transfer Switch Only,POINT (-73.33616 40.893841)
663,"Cumberland Farms, Inc.",2111 Deer Park Avenue,Deer Park,NY,11729,40.773825,-73.333929,Transfer Switch Only,POINT (-73.333929 40.773825)
719,"7-Eleven, Inc.",403 Broadway,Amityville,NY,11701,40.685789,-73.41818,Transfer Switch Only,POINT (-73.41818 40.685789)
889,174-02 Horace Harding Expwy Operating Corp,174-02 Horace Harding Expressway,Queens,NY,11365,40.73833,-73.794569,Transfer Switch Only,POINT (-73.794569 40.73833)
927,Gaseteria Oil Corp,2620 86th Street,Brooklyn,NY,11223,40.596186,-73.984818,Transfer Switch Only,POINT (-73.984818 40.596186)
907,"Certified Heating Oils, Inc.",995 Manor Rd,Staten Island,NY,10314,40.602086,-74.120269,Transfer Switch Only,POINT (-74.120269 40.602086)
299,Metro NY Dealer Stations LLC,2472 Knapp St,Brooklyn,NY,11235,40.592811,-73.932946,Transfer Switch Only,POINT (-73.932946 40.592811)
413,Bolla EM REalty LLC,619 Coney Island Av,Brooklyn,NY,11218,40.642012,-73.96934,Transfer Switch Only,POINT (-73.96934 40.642012)
966,Massapequa Park Service Center Incorporated,4850 Sunrise Hwy,Massapequa Park,NY,11762,40.677068,-73.45598,Transfer Switch and Generator,POINT (-73.45598 40.677068)
751,Heaven Enterprises Inc,268 Higbie Lane,West Islip,NY,11795,40.709802,-73.30691,Transfer Switch Only,POINT (-73.30691 40.709802)
619,"Cumberland Farms, Inc.",340 Rockaway Tpk,Cedarhurst,NY,11516,40.624779,-73.735269,Transfer Switch Only,POINT (-73.735269 40.624779)
426,Global Montello Group LLC,6571 Broadway,Bronx,NY,10471,40.907675,-73.896855,Transfer Switch Only,POINT (-73.896855 40.907675)
514,Bolla Operating Corp.,875 4th Avenue,Brooklyn,NY,11232,40.656001,-74.002228,Transfer Switch Only,POINT (-74.002228 40.656001)
431,Global Montello Group LLC,15 Veterans Memorial Hwy,Commack,NY,11725,40.840559,-73.285273,Transfer Switch Only,POINT (-73.285273 40.840559)
825,Atlantis Management Group II LLC,245 Larkfield Rd,East Northport,NY,11731,40.877286,-73.324373,Transfer Switch Only,POINT (-73.324373 40.877286)
167,BFB Service Inc,1865 Bruckner Boulevard,Bronx,NY,10472,40.826194,-73.861853,Transfer Switch Only,POINT (-73.861853 40.826194)
33,Bolla Operating Corp.,260-01 Horace Harding Blvd.,Little Neck,NY,11362,40.766074,-73.72459,Permanent Generator,POINT (-73.72459 40.766074)
35,Bolla Operating Corp.,2773 Nostrand Ave,Brooklyn,NY,11210,40.616893,-73.944608,Permanent Generator,POINT (-73.944608 40.616893)
149,CPG Distribution Corp,1121 Pennsylvania Ave,Brooklyn,NY,11207,40.653098,-73.886187,Permanent Generator,POINT (-73.886187 40.653098)
265,NY Fuel Distributors LLC,1 Enterprise Blvd,Yonkers,NY,10701,40.971852,-73.878939,Transfer Switch Only,POINT (-73.878939 40.971852)
46,Bolla Operating LI Corp,750 Motor Parkway,Brentwood,NY,11717,40.80594,-73.234049,Permanent Generator,POINT (-73.234049 40.80594)
857,Kickstart Cafe Inc. Dba Ardsley Mart,555 Saw Mill River Road,Ardsley,NY,10502,41.007529,-73.852199,Transfer Switch Only,POINT (-73.852199 41.007529)
162,"Certified Heating Oils, Inc.",172-180 W Service Rd,Staten Island,NY,10314,40.589342,-74.194193,Transfer Switch Only,POINT (-74.194193 40.589342)
746,"Anjon of Southampton, Inc",270 Hampton Road,Southampton,NY,11968,40.890721,-72.381233,Transfer Switch Only,POINT (-72.381233 40.890721)
280,NY Fuel Distributors LLC,160 S Highland Av,Ossining,NY,10562,41.148526,-73.860643,Transfer Switch Only,POINT (-73.860643 41.148526)
65,SPJ LLC,195 Pine Aire Drive,Bay Shore,NY,11706,40.772473,-73.278725,Permanent Generator,POINT (-73.278725 40.772473)
574,"Cumberland Farms, Inc.",1087 Northern Boulevard,Roslyn,NY,11576,40.800055,-73.659326,Transfer Switch Only,POINT (-73.659326 40.800055)
181,Hess Corporation,380 Peninsula Boulevard,Hempstead,NY,11550,40.70327,-73.626462,Transfer Switch Only,POINT (-73.626462 40.70327)
690,"Cumberland Farms, Inc.",449 Glen Cove Road,Roslyn Heights,NY,11577,40.784673,-73.623086,Transfer Switch Only,POINT (-73.623086 40.784673)
297,Metro NY Dealer Stations LLC,238-50 Jamaica Avenue,Floral Park,NY,11001,40.722831,-73.728246,Transfer Switch Only,POINT (-73.728246 40.722831)
18,PMG Northeast LLC,325 South Oyster Bay Road,Plainview,NY,11803,40.787051,-73.503063,Permanent Generator,POINT (-73.503063 40.787051)
445,Atlantis Management Group II LLC,4353 Broadway,New York,NY,10033,40.853557,-73.934357,Transfer Switch Only,POINT (-73.934357 40.853557)
150,Lakegrove Mart Inc,3089 Middle Country Rd,Lake Grove,NY,11755,40.861553,-73.120894,Permanent Generator,POINT (-73.120894 40.861553)
376,Hess Corporation,640 Montauk Highway,Bayport,NY,11705,40.746804,-73.059649,Transfer Switch Only,POINT (-73.059649 40.746804)
734,"Cumberland Farms, Inc.",2 Sunrise Highway,Rockville Centre,NY,11570,40.65644,-73.656678,Transfer Switch Only,POINT (-73.656678 40.65644)
602,"Cumberland Farms, Inc.",525 North Country Road,Saint James,NY,11780,40.887223,-73.15934,Transfer Switch Only,POINT (-73.15934 40.887223)
585,"Cumberland Farms, Inc.",3031 Coney Island Avenue,Brooklyn,NY,11235,40.582429,-73.959636,Transfer Switch Only,POINT (-73.959636 40.582429)
820,Atlantis Management Group II LLC,1740 Jerome Avenue,Bronx,NY,10453,40.847354,-73.912206,Transfer Switch Only,POINT (-73.912206 40.847354)
563,Bill Wolf Petroleum Maintenance LLC,102 Yonkers Avenue,Yonkers,NY,10701,40.935116,-73.885589,Transfer Switch Only,POINT (-73.885589 40.935116)
905,D.S. Jamaica Gas Inc.,137-10 Farmers Blv,Queens,NY,11434,40.673214,-73.764352,Transfer Switch Only,POINT (-73.764352 40.673214)
976,Bolla Operating Corp.,497 Meeker Avenue,Brooklyn,NY,11222,40.720652,-73.944329,Transfer Switch Only,POINT (-73.944329 40.720652)
177,Hess Corporation,502 West 45th Street,New York,NY,10036,40.761528,-73.994502,Transfer Switch Only,POINT (-73.994502 40.761528)
424,Throgs Neck Petro Realty LLC,4147 Throgs Neck Expy,Bronx,NY,10465,40.819976,-73.809926,Transfer Switch Only,POINT (-73.809926 40.819976)
1008,Atlantis Management Group II LLC,1320 5th Avenue,Bayshore,NY,11706,40.735218,-73.262815,Transfer Switch Only,POINT (-73.262815 40.735218)
695,"Cumberland Farms, Inc.",203 East Park Avenue,Long Beach,NY,11561,40.588955,-73.65764,Transfer Switch Only,POINT (-73.65764 40.588955)
192,Hess Corporation,1800 Deer Park Avenue,Deer Park,NY,11729,40.757547,-73.32796,Transfer Switch Only,POINT (-73.32796 40.757547)
403,221 Gas Corp.,221 Baldwin Rd,Hempstead,NY,11550,40.69532,-73.614581,Transfer Switch Only,POINT (-73.614581 40.69532)
733,MOTOR PARKWAY ENTERPRISES INC,260 Motor Parkway,Brentwood,NY,11717,40.805382,-73.266715,Transfer Switch Only,POINT (-73.266715 40.805382)
23,"OK Petroleum Distribution, Corp.",767 Wantagh Avenue,Wantagh,NY,11793,40.705166,-73.503219,Permanent Generator,POINT (-73.503219 40.705166)
45,PMG Northeast LLC,700 Motor Parkway,Hauppauge,NY,11788,40.807243,-73.23636,Permanent Generator,POINT (-73.23636 40.807243)
844,Global Montello Group Corp.,156-07 Rockaway Boulevard,Queens,NY,11434,40.666638,-73.779441,Transfer Switch Only,POINT (-73.779441 40.666638)
773,Petro Value LLC,699 Fulton Av,Hempstead,NY,11550,40.712807,-73.608248,Transfer Switch Only,POINT (-73.608248 40.712807)
287,NY Fuel Distributors LLC,1063 Yonkers Av,Yonkers,NY,10704,40.913775,-73.857269,Transfer Switch Only,POINT (-73.857269 40.913775)
744,Rockville Auto Boutique,360 Sunrise Highway,Rockville Centre,NY,11570,40.656775,-73.640416,Transfer Switch Only,POINT (-73.640416 40.656775)
876,BISJ Corp,19 Saw Mill River Rd,Hawthorne,NY,10532,41.092989,-73.818061,Transfer Switch Only,POINT (-73.818061 41.092989)
827,Atlantis Management Group II LLC,59-36 Maurice Avenue,Queens,NY,11378,40.726877,-73.907343,Transfer Switch Only,POINT (-73.907343 40.726877)
578,"Cumberland Farms, Inc.",641 E Gun Hill Rd,Bronx,NY,10467,40.878082,-73.867624,Transfer Switch Only,POINT (-73.867624 40.878082)
712,Hardev Petroleum Inc.,1034 Islip Avenue,Brentwood,NY,11717,40.766147,-73.210988,Transfer Switch Only,POINT (-73.210988 40.766147)
580,"Cumberland Farms, Inc.",200 S Oyster Bay Rd,Syosset,NY,11791,40.798483,-73.503356,Transfer Switch Only,POINT (-73.503356 40.798483)
292,Metro NY Dealer Stations LLC,460 Jericho Turnpike,Jericho,NY,11753,40.796592,-73.534541,Transfer Switch Only,POINT (-73.534541 40.796592)
959,Palmer Service Station Inc.,808 Palmer Ave,Mamaroneck,NY,10543,40.944089,-73.744394,Transfer Switch and Generator,POINT (-73.744394 40.944089)
60,Certified Heating Oils Inc,1810 Forest Ave,Staten Island,NY,10303,40.624936,-74.149149,Permanent Generator,POINT (-74.149149 40.624936)
119,PMG Northeast LLC,211 5th Avenue,Bayshore,NY,11706,40.730441,-73.260736,Permanent Generator,POINT (-73.260736 40.730441)
282,NY Fuel Distributors LLC,1141 Boston Post Road,Rye,NY,10580,40.984525,-73.682162,Transfer Switch Only,POINT (-73.682162 40.984525)
205,Hess Corporation,550 Atlantic Ave,Oceanside,NY,11572,40.641034,-73.656036,Transfer Switch Only,POINT (-73.656036 40.641034)
546,Blue Point BP Inc.,62 Montauk Hwy,Blue Point,NY,11715,40.75355,-73.03785,Transfer Switch Only,POINT (-73.03785 40.75355)
260,Busy Bee Stores Corp.,1470 Jerusalem Avenue,North Merrick,NY,11566,40.692497,-73.566618,Transfer Switch Only,POINT (-73.566618 40.692497)
28,Certified Heating Oils Inc,172 West Service Road,Staten Island,NY,10314,40.589342,-74.194193,Permanent Generator,POINT (-74.194193 40.589342)
414,Bolla EM Realty LLC,3132 Fort Hamilton Parkway,Brooklyn,NY,11218,40.647645,-73.979768,Transfer Switch Only,POINT (-73.979768 40.647645)
642,"Cumberland Farms, Inc.",1260 Hicksville Rd,Massapequa,NY,11758,40.694249,-73.480327,Transfer Switch Only,POINT (-73.480327 40.694249)
72,Arthur Kill Fuels LLC,1781 Arthur Kill Rd,Staten Island,NY,10312,40.558941,-74.198171,Permanent Generator,POINT (-74.198171 40.558941)
392,Westchester Auto Repair Service Corp.,666 Sawmill River Road,Yonkers,NY,10701,40.958179,-73.870593,Transfer Switch Only,POINT (-73.870593 40.958179)
13,Alliance Energy LLC,228-20 Merrick Blvd.,Laurelton,NY,11413,40.676241,-73.741748,Permanent Generator,POINT (-73.741748 40.676241)
446,Atlantis Management Group II LLC,134-30 Atlantic Avenue,Queens,NY,11419,40.696931,-73.814309,Transfer Switch Only,POINT (-73.814309 40.696931)
937,"J&E Service, Inc.",336 S Riverside Av,Croton-Hudson,NY,10520,41.195803,-73.883118,Transfer Switch and Generator,POINT (-73.883118 41.195803)
383,Hess Corporation,895 Old Country Road,Plainview,NY,11803,40.774284,-73.477617,Transfer Switch Only,POINT (-73.477617 40.774284)
55,Bolla Operating LI Corp,274 N. Broadway,Hicksville,NY,11801,40.777815,-73.530555,Permanent Generator,POINT (-73.530555 40.777815)
573,Keshtgar & Company Inc.,303 West 96th Street,New York,NY,10025,40.795761,-73.973813,Transfer Switch Only,POINT (-73.973813 40.795761)
314,Metro NY Dealer Stations LLC,3190 Albany Post Rd,Buchanan,NY,10511,41.263448,-73.937563,Transfer Switch Only,POINT (-73.937563 41.263448)
612,"Cumberland Farms, Inc.",498 County Rd 111,Manorville,NY,11949,40.870833,-72.800285,Transfer Switch Only,POINT (-72.800285 40.870833)
788,Green Station Auto Service,875 Long Island Avenue,Deer Park,NY,11729,40.764255,-73.320204,Transfer Switch Only,POINT (-73.320204 40.764255)
145,Tropicana Mart Inc.,303 Maple Avenue,Smithtown,NY,11787,40.837405,-73.194156,Permanent Generator,POINT (-73.194156 40.837405)
714,Chris Diagnostic,46 Main Street,New Rochelle,NY,10801,40.919212,-73.766045,Transfer Switch Only,POINT (-73.766045 40.919212)
499,Bill Wolf Petroleum Maintenance LLC,3260 Broadway,New York,NY,10027,40.817622,-73.956476,Transfer Switch Only,POINT (-73.956476 40.817622)
50,Island Energy,2243 RT 112,Medford,NY,11763,40.813592,-73.000701,Permanent Generator,POINT (-73.000701 40.813592)
467,"Sunoco, Inc. (R+M)",489 Stewart Avenue,Bethpage,NY,11714,40.741144,-73.481892,Transfer Switch Only,POINT (-73.481892 40.741144)
336,BP Products North America Inc.,824 Allerton Avenue,Bronx,NY,10467,40.865236,-73.862186,Transfer Switch Only,POINT (-73.862186 40.865236)
237,Hess Corporation,6201 Sunrise Highway,Massapequa,NY,11758,40.683532,-73.429521,Transfer Switch Only,POINT (-73.429521 40.683532)
920,Masters Petroleum Inc,1680 North Ocean Avenue,Holtsville,NY,11742,40.817177,-73.020659,Transfer Switch Only,POINT (-73.020659 40.817177)
805,196 Hillside Service Center Inc,196-29 Hillside Ave,Hollis,NY,11423,40.718382,-73.766157,Transfer Switch Only,POINT (-73.766157 40.718382)
182,Hess Corporation,187-07 Hillside Avenue,Queens,NY,11432,40.714953,-73.775404,Transfer Switch Only,POINT (-73.775404 40.714953)
705,Arzu Petroleum Corp,621 Commack Road,Commack,NY,11725,40.814981,-73.293459,Transfer Switch Only,POINT (-73.293459 40.814981)
948,NorthFork Petroleum Inc.,49675 Main Road,Southold,NY,11971,41.05445,-72.4352333333,Transfer Switch and Generator,POINT (-72.4352333333 41.05445)
351,BP Products North America Inc.,73-15 Parsons Boulevard,Flushing,NY,11366,40.726908,-73.810508,Transfer Switch Only,POINT (-73.810508 40.726908)
541,A&b Auto Repair DBA Gordon & Sons Inc,153-28 Rockaway Boulevard,Queens,NY,11434,40.669725,-73.783113,Transfer Switch Only,POINT (-73.783113 40.669725)
87,1020 Route 109 Corp,1020 Route 109,Lindenhurst,NY,11757,40.715328,-73.393448,Permanent Generator,POINT (-73.393448 40.715328)
160,Ocean Avenue Gas Corp,3010 Ocean Avenue,Brooklyn,NY,11235,40.587784,-73.949636,Transfer Switch Only,POINT (-73.949636 40.587784)
673,"Cumberland Farms, Inc.",749 Port Washington Boulevard,Port Washington,NY,11050,40.827265,-73.682941,Transfer Switch Only,POINT (-73.682941 40.827265)
765,"East River Petroleum Realty, Llc",172-11 Northern Boulevard,Queens,NY,11358,40.75813,-73.7936,Transfer Switch Only,POINT (-73.7936 40.75813)
980,Bolla EM Realty LLC,7023 Bay Parkway,Brooklyn,NY,11204,40.610419,-73.984446,Transfer Switch Only,POINT (-73.984446 40.610419)
605,"Cumberland Farms, Inc.",325 Washington Avenue,Brentwood,NY,11717,40.798114,-73.247286,Transfer Switch Only,POINT (-73.247286 40.798114)
188,Hess Corporation,4295 Austin Boulevard,Island Park,NY,11558,40.604937,-73.649597,Transfer Switch Only,POINT (-73.649597 40.604937)
901,"JNG Service, Inc.",1500 Williamsbridge Road,Bronx,NY,10461,40.844882,-73.8462,Transfer Switch Only,POINT (-73.8462 40.844882)
407,L I C Star Inc,47-15 11th Street,Queens,NY,11101,40.744646,-73.950572,Transfer Switch Only,POINT (-73.950572 40.744646)
173,Fatdom Realty,561 Kimball Av,Yonkers,NY,10704,40.920527,-73.854083,Transfer Switch Only,POINT (-73.854083 40.920527)
832,"East River Petroleum Realty, LLC",228-20 Merrick Boulevard,Queens,NY,11413,40.676241,-73.741748,Transfer Switch Only,POINT (-73.741748 40.676241)
114,Ac Woodhaven Realty Corp,6827 Woodhaven blvd,Rego Park,NY,11374,40.714864,-73.859522,Permanent Generator,POINT (-73.859522 40.714864)
682,"Cumberland Farms, Inc.",133-44 150th Street,Queens,NY,11436,40.667261,-73.789714,Transfer Switch Only,POINT (-73.789714 40.667261)
220,Hess Corporation,148-27 Liberty Avenue,Queens,NY,11435,40.69787,-73.802889,Transfer Switch Only,POINT (-73.802889 40.69787)
275,NY Fuel Distributors LLC,848 S Bedford Rd,Bedford,NY,10506,41.192962,-73.659827,Transfer Switch Only,POINT (-73.659827 41.192962)
785,"East River Petroleum Realty, LLC",147-10 Northern Blv,Queens,NY,11354,40.764784,-73.818918,Transfer Switch Only,POINT (-73.818918 40.764784)
420,Mt. Ivy Country Corner Inc.,77-33 Queens Boulevard,Queens,NY,11373,40.738782,-73.88597,Transfer Switch Only,POINT (-73.88597 40.738782)
82,Alliance Energy LLC,105-45 Horace Harding Blvd,Corona,NY,11368,40.73783,-73.8525,Permanent Generator,POINT (-73.8525 40.73783)
737,SEKER LTD,736 Main Street,Islip,NY,11751,40.729794,-73.208464,Transfer Switch Only,POINT (-73.208464 40.729794)
378,1050 Udall Road Corp.,1050 Udall Road,Bay Shore,NY,11706,40.739555,-73.295629,Transfer Switch Only,POINT (-73.295629 40.739555)
991,CPD NY Energy Corp,1237 Mamaroneck Avenue,White Plains,NY,10605,40.991852,-73.745626,Transfer Switch Only,POINT (-73.745626 40.991852)
997,CPD NY Energy Corp,635 Marble Av,Thornwood,NY,10594,41.12509,-73.783541,Transfer Switch Only,POINT (-73.783541 41.12509)
231,Hess Corporation,780 Suffolk Avenue,Brentwood,NY,11717,40.780886,-73.246476,Transfer Switch Only,POINT (-73.246476 40.780886)
363,BP Products North America Inc.,60-50 Wood Haven Blv,Queens,NY,11373,40.730624,-73.871998,Transfer Switch Only,POINT (-73.871998 40.730624)
452,"Sunoco, Inc. (R+M)",1 Glen Cove Avenue,Glen Cove,NY,11542,40.862619,-73.632268,Transfer Switch Only,POINT (-73.632268 40.862619)
77,City Fuels LLC,4353 Broadway,New York,NY,10033,40.853557,-73.934357,Permanent Generator,POINT (-73.934357 40.853557)
568,Super Value NY Inc.,20 Kensico Road,Thornwood,NY,10594,41.123562,-73.780755,Transfer Switch Only,POINT (-73.780755 41.123562)
8,1185 Straight Path Corp.,1185 Straight Path,West Babylon,NY,11704,40.73671667,-73.36931667,Permanent Generator,POINT (-73.36931667 40.73671667)
246,146 Tuckahoe Road LLC.,146 Tuckahoe Blv,Yonkers,NY,10704,40.954416,-73.864677,Transfer Switch Only,POINT (-73.864677 40.954416)
738,CPD NY Energy,537 Main Street,New Paltz,NY,12561,41.064325,-73.813767,Transfer Switch Only,POINT (-73.813767 41.064325)
319,Hess Corporation,522 Smithtown By-Pass,Hauppauge,NY,11788,40.831496,-73.196828,Transfer Switch Only,POINT (-73.196828 40.831496)
510,Bill Wolf Petroleum Maintenance LLC,444 Commack Road,Commack,NY,11725,40.828239,-73.292573,Transfer Switch Only,POINT (-73.292573 40.828239)
881,West Gas Inc.,2276 Westchester Avenue,Bronx,NY,10462,40.834707,-73.84877,Transfer Switch Only,POINT (-73.84877 40.834707)
40,PMG Northeast LLC,525 Wicks Road,Brentwood,NY,11717,40.803841,-73.268481,Permanent Generator,POINT (-73.268481 40.803841)
650,"Cumberland Farms, Inc.",6743 4th Avenue,Brooklyn,NY,11220,40.635752,-74.022595,Transfer Switch Only,POINT (-74.022595 40.635752)
435,Global Montello Group LLC,350 Rockaway Turnpike,Cedarhurst,NY,11516,40.624997,-73.735469,Transfer Switch Only,POINT (-73.735469 40.624997)
99,Bolla Operating LI Corp,515 Old Country Rd,Westbury,NY,11590,40.749818,-73.579448,Permanent Generator,POINT (-73.579448 40.749818)
617,"Cumberland Farms, Inc.",8775 Bay Parkway,Brooklyn,NY,11214,40.598113,-73.99724,Transfer Switch Only,POINT (-73.99724 40.598113)
304,Metro NY Dealer Stations LLC,700 Commack Road,Commack,NY,11725,40.805564,-73.294313,Transfer Switch Only,POINT (-73.294313 40.805564)
272,NY Fuel Distributors LLC,1001 Central Park Avenue,Yonkers,NY,10704,40.936201,-73.856581,Transfer Switch Only,POINT (-73.856581 40.936201)
209,Hess Corporation,914 Coney Island Avenue,Brooklyn,NY,11230,40.634889,-73.967838,Transfer Switch Only,POINT (-73.967838 40.634889)
600,"Cumberland Farms, Inc.",4560 Expressway Dr S,Ronkonkoma,NY,11779,40.811157,-73.125412,Transfer Switch Only,POINT (-73.125412 40.811157)
864,Rockaway100 Inc.,100-07 Rockaway Blvd,Queens,NY,11417,40.68025,-73.839278,Transfer Switch Only,POINT (-73.839278 40.68025)
891,"Cumberland Farms, Inc.",2050 New Hyde Park Road,New Hyde Park,NY,11040,40.754471,-73.687273,Transfer Switch Only,POINT (-73.687273 40.754471)
478,Bolla Operating Corp.,868 Arthur Kill Road,Staten Island,NY,10312,40.560653,-74.169301,Transfer Switch Only,POINT (-74.169301 40.560653)
812,Super Value NY Inc.,704 Sawmill River Rd,Yonkers,NY,10701,40.9596,-73.870296,Transfer Switch Only,POINT (-73.870296 40.9596)
388,Hess Corporation,1610 Eastchester Rd,Bronx,NY,10461,40.844583,-73.8457,Transfer Switch Only,POINT (-73.8457 40.844583)
495,Bill Wolf Petroleum Maintenance LLC,1500 Bruckner Blvd,Bronx,NY,10473,40.823266,-73.878559,Transfer Switch Only,POINT (-73.878559 40.823266)
632,"Cumberland Farms, Inc.",640 Old Country Road,Garden City,NY,11530,40.742995,-73.614075,Transfer Switch Only,POINT (-73.614075 40.742995)
759,"East River Petroleum Realty, Llc",64-01 Woodhaven Boulevard,Queens,NY,11374,40.72149,-73.8659,Transfer Switch Only,POINT (-73.8659 40.72149)
346,BP Products North America Inc.,6401 4th Avenue,Brooklyn,NY,11220,40.638294,-74.020748,Transfer Switch Only,POINT (-74.020748 40.638294)
859,"Asghar & Sons Petroleum, Inc.",1127 Broadway,Farmingdale,NY,11735,40.709735,-73.427981,Transfer Switch Only,POINT (-73.427981 40.709735)
368,BP Products North America Inc.,145-55 Guy R Brewer Boulevard,Queens,NY,11434,40.664604,-73.768558,Transfer Switch Only,POINT (-73.768558 40.664604)
553,Satruc Petroleum Corp.,2665 Route 112,Medford,NY,11763,40.821653,-72.99791,Transfer Switch Only,POINT (-72.99791 40.821653)
536,East End Marketing,1651 Montauk Highway,Mastic,NY,11950,40.806414,-72.837677,Transfer Switch Only,POINT (-72.837677 40.806414)
817,Atlantis Management Group II LLC,481 East 163rd Street,Bronx,NY,10456,40.82507,-73.91005,Transfer Switch Only,POINT (-73.91005 40.82507)
104,Suten Inc,2 West Montauk Highway,Lindenhurst,NY,11757,40.678406,-73.364771,Permanent Generator,POINT (-73.364771 40.678406)
610,"Cumberland Farms, Inc.",1575 Old Country Road,Riverhead,NY,11901,40.925225,-72.695184,Transfer Switch Only,POINT (-72.695184 40.925225)
324,West Bay Marketing LLC.,758 Franklin Av,Valley Stream,NY,11580,40.687727,-73.68641,Transfer Switch Only,POINT (-73.68641 40.687727)
595,"Cumberland Farms, Inc.",55-56 Express Drive South,Holtsville,NY,11742,40.822004,-73.020553,Transfer Switch Only,POINT (-73.020553 40.822004)
141,Anjon of Bridgehampton Inc,2148 Montauk Highway,Bridgehampton,NY,11930,40.933583,-72.313014,Permanent Generator,POINT (-72.313014 40.933583)
800,md north realty corp,70 Major Deegan Expressway,Bronx,NY,10470,40.89496,-73.882638,Transfer Switch Only,POINT (-73.882638 40.89496)
214,Hess Corporation,2211 Bedford Avenue,Brooklyn,NY,11226,40.649731,-73.955603,Transfer Switch Only,POINT (-73.955603 40.649731)
727,LUKOIL North America LLC,255 Lake Av,Saint James,NY,11780,40.876575,-73.156094,Transfer Switch Only,POINT (-73.156094 40.876575)
622,"Cumberland Farms, Inc.",31 Northern Boulevard,Great Neck,NY,11022,40.773507,-73.733626,Transfer Switch Only,POINT (-73.733626 40.773507)
92,The Source Service Station,2 Old Country Rd,Westbury,NY,11590,40.746876,-73.592433,Permanent Generator,POINT (-73.592433 40.746876)
484,Supreme Gas LLC,134-35 101st Avenue,Queens,NY,11418,40.694175,-73.812637,Transfer Switch Only,POINT (-73.812637 40.694175)
849,Global Montello Group Corp.,774 Tuckahoe Rd,Yonkers,NY,10710,40.950589,-73.839396,Transfer Switch Only,POINT (-73.839396 40.950589)
701,Gaseteria Oil Corp,265 Nagle Avenue,New York,NY,10034,40.863038,-73.920245,Transfer Switch Only,POINT (-73.920245 40.863038)
521,East End Marketing,490 Broadway,Amityville,NY,11701,40.68878,-73.420355,Transfer Switch Only,POINT (-73.420355 40.68878)
67,Top Green LLC,173-12 Horace Harding Expressway,Fresh Meadows,NY,11365,40.737849,-73.795582,Permanent Generator,POINT (-73.795582 40.737849)
241,Hess Corporation,386 S Broadway,Tarrytown,NY,10591,41.063357,-73.861937,Transfer Switch Only,POINT (-73.861937 41.063357)
252,Hess Corporation,126 Bruckner Boulevard,Bronx,NY,10454,40.803935,-73.921152,Transfer Switch Only,POINT (-73.921152 40.803935)
896,"Inwood Gas, Inc.",20 Sheridan Blv,Inwood,NY,11696,40.611326,-73.752898,Transfer Switch Only,POINT (-73.752898 40.611326)
965,Kap Fuel & Food Inc.,970 Bloomingdale Road,Staten Island,NY,10309,40.549921,-74.221369,Transfer Switch and Generator,POINT (-74.221369 40.549921)
627,"Cumberland Farms, Inc.",270 Sunrise Highway,Valley Stream,NY,11580,40.662074,-73.710436,Transfer Switch Only,POINT (-73.710436 40.662074)
916,Carle Place Gas Inc.,345 Old Country Rd,Carle Place,NY,11514,40.744896,-73.606745,Transfer Switch Only,POINT (-73.606745 40.744896)
770,"Liberty Petroleum Realty, LLC",1719 Cross Bronx Exp,Bronx,NY,10460,40.83662,-73.8706,Transfer Switch Only,POINT (-73.8706 40.83662)
944,Apache Oil Company Inc.,9 Hains Road,Bedford Hills,NY,10507,41.23848,-73.701268,Transfer Switch and Generator,POINT (-73.701268 41.23848)
669,"Cumberland Farms, Inc.",2030 Sunrise Hwy,Merrick,NY,11566,40.662794,-73.551082,Transfer Switch Only,POINT (-73.551082 40.662794)
156,Kap Fuel & Food Inc.,970 Bloomingdale Road,Staten Island,NY,10309,40.549921,-74.221369,Permanent Generator,POINT (-74.221369 40.549921)
199,Hess Corporation,821 Country Road 39,Southampton,NY,11968,40.89255,-72.425194,Transfer Switch Only,POINT (-72.425194 40.89255)
109,Alliance Energy LLC,549 Jericho Turnpike,Mineola,NY,11501,40.743663,-73.656567,Permanent Generator,POINT (-73.656567 40.743663)
331,BP Products North America Inc.,138 Peninsula Boulevard,Hempstead,NY,11550,40.706409,-73.619028,Transfer Switch Only,POINT (-73.619028 40.706409)
463,"Sunoco, Inc. (R+M)",1657 Jerome Avenue,Bronx,NY,10453,40.845813,-73.914056,Transfer Switch Only,POINT (-73.914056 40.845813)
933,Nyack Retail Corp.,45 North Highland Avenue,Nyack,NY,10960,41.093364,-73.927922,Transfer Switch and Generator,POINT (-73.927922 41.093364)
913,Hill Enterprise Inc,1201 Sunrise Highway,Copiague,NY,11726,40.692108,-73.397437,Transfer Switch Only,POINT (-73.397437 40.692108)
686,"Cumberland Farms, Inc.",17-55 Francis Lewis Boulevard,Queens,NY,11357,40.782418,-73.803459,Transfer Switch Only,POINT (-73.803459 40.782418)
522,East End Marketing,28975 Main Road,Cutchogue,NY,11935,41.013127,-72.484191,Transfer Switch Only,POINT (-72.484191 41.013127)
984,Bolla Operating Corp.,2000 Rockaway Pky,Brooklyn,NY,11236,40.633918,-73.890267,Transfer Switch Only,POINT (-73.890267 40.633918)
131,"OK Petroleum Distribution, Corp.",255 East Main Street,East Patchogue,NY,11772,40.766277,-73.007214,Permanent Generator,POINT (-73.007214 40.766277)
400,Bolla Operating LI Corp,1291 Peninsula Boulevard,Hewlett,NY,11557,40.643726,-73.703555,Transfer Switch Only,POINT (-73.703555 40.643726)
960,Peekskill Gas Mart Inc,4100 Albany Post Road,Peekskill,NY,10566,41.271633,-73.930109,Transfer Switch and Generator,POINT (-73.930109 41.271633)
769,"Liberty Petroleum Realty, LLC",718 11th Avenue,New York,NY,10019,40.7663,-73.994,Transfer Switch Only,POINT (-73.994 40.7663)
828,"Pinsu, Inc",325 Patchoque-Holbrook Road,Holtsville,NY,11742,40.78794,-73.045871,Transfer Switch Only,POINT (-73.045871 40.78794)
637,"Cumberland Farms, Inc.",85 North Central Avenue,Valley Stream,NY,11580,40.670205,-73.708014,Transfer Switch Only,POINT (-73.708014 40.670205)
696,"Cumberland Farms, Inc.",950 Carmens Road,Massapequa,NY,11758,40.702628,-73.432633,Transfer Switch Only,POINT (-73.432633 40.702628)
279,NY Fuel Distributors LLC,974 Mamaroneck Av,Mamaroneck,NY,10543,40.960271,-73.73726,Transfer Switch Only,POINT (-73.73726 40.960271)
869,Lotus Management Group NY Inc,2475 Boston Road,Bronx,NY,10467,40.863037,-73.86622,Transfer Switch Only,POINT (-73.86622 40.863037)
781,"East River Petroleum Realty, LLC",45-05 Bell Boulevard,Queens,NY,11361,40.760032,-73.768631,Transfer Switch Only,POINT (-73.768631 40.760032)
456,"Sunoco, Inc. (R+M)",314 Boston Post Road,Port Chester,NY,10573,40.995564,-73.672811,Transfer Switch Only,POINT (-73.672811 40.995564)
884,Sedgwick Service Inc,1314 Sedgwick Av,Bronx,NY,10452,40.841501,-73.927563,Transfer Switch Only,POINT (-73.927563 40.841501)
224,Hess Corporation,219-28 Hillside Avenue,Queens,NY,11427,40.729775,-73.74418,Transfer Switch Only,POINT (-73.74418 40.729775)
609,"Cumberland Farms, Inc.",624 N Wellwood Av,Lindenhurst,NY,11757,40.701148,-73.383826,Transfer Switch Only,POINT (-73.383826 40.701148)
395,Bolla Operating Corp.,2773 Nostrand Av,Brooklyn,NY,11210,40.616893,-73.944608,Transfer Switch Only,POINT (-73.944608 40.616893)
987,CPD NY Energy Corp,425 Dobbs Ferry Rd,White Plains,NY,10607,41.036079,-73.809987,Transfer Switch Only,POINT (-73.809987 41.036079)
307,Metro NY Dealer Stations LLC,257 Merrick Road,Lynbrook,NY,11563,40.657819,-73.669218,Transfer Switch Only,POINT (-73.669218 40.657819)
136,PMG Northeast LLC,279 Little Tor Road,New City,NY,10956,41.129538,-74.002551,Permanent Generator,POINT (-74.002551 41.129538)
564,"Olympic Three, Inc.",59-51 Queens Midtown Exp,Queens,NY,11378,40.728049,-73.90672,Transfer Switch Only,POINT (-73.90672 40.728049)
1001,Gasoline Heaven at Commack Inc.,2088 Jericho Turnpike,Commack,NY,11725,40.844128,-73.277031,Transfer Switch Only,POINT (-73.277031 40.844128)
300,Metro NY Dealer Stations LLC,548 Coney Island Av,Brooklyn,NY,11218,40.643958,-73.970373,Transfer Switch Only,POINT (-73.970373 40.643958)
227,Hess Corporation,204 4th Avenue,Brooklyn,NY,11217,40.677897,-73.983086,Transfer Switch Only,POINT (-73.983086 40.677897)
4,Royal Petroleum Management Inc.,1 East 233rd St.,Bronx,NY,10470,40.895889,-73.876527,Permanent Generator,POINT (-73.876527 40.895889)
268,NY Fuel Distributors LLC,2001 Commerce Street,Yorktown Heights,NY,10598,41.276375,-73.782912,Transfer Switch Only,POINT (-73.782912 41.276375)
852,Zullin Inc.,4740 Sunrise Highway,Bohemia,NY,11716,40.755818,-73.109215,Transfer Switch Only,POINT (-73.109215 40.755818)
506,Bill Wolf Petroleum Maintenance LLC,3736 Merrick Rd,Seaford,NY,11783,40.665165,-73.492739,Transfer Switch Only,POINT (-73.492739 40.665165)
439,Global Montello Group LLC,665 Glen Cove Av,Glen Head,NY,11545,40.833047,-73.630137,Transfer Switch Only,POINT (-73.630137 40.833047)
432,Global Montello Group LLC,292 Railroad Avenue,Sayville,NY,11782,40.739754,-73.084861,Transfer Switch Only,POINT (-73.084861 40.739754)
242,Deer Hills Service LLC,1985 Deer Park Avenue,Deer Park,NY,11729,40.765863,-73.330681,Transfer Switch Only,POINT (-73.330681 40.765863)
81,"OK Petroleum Distribution, Corp.",967 E. Jericho Tpke,"Huntington, NY",NY,11746,40.83588333,-73.37363333,Permanent Generator,POINT (-73.37363333 40.83588333)
654,"Cumberland Farms, Inc.",605 Burnside Av,Inwood,NY,11696,40.623294,-73.742119,Transfer Switch Only,POINT (-73.742119 40.623294)
923,Gemini Gas Inc.,570 Hicksville Road,Seaford,NY,11783,40.709804,-73.483221,Transfer Switch Only,POINT (-73.483221 40.709804)
168,Jamaica Island Corp.,32 Jamaica Avenue,Brooklyn,NY,11207,40.677306,-73.898673,Transfer Switch Only,POINT (-73.898673 40.677306)
36,ARJ Gas N Mart Inc,4 Colonial Spring Rd,Wheatley Heights,NY,11798,40.756612,-73.37451,Permanent Generator,POINT (-73.37451 40.756612)
659,"Cumberland Farms, Inc.",525 Wicks Road,Brentwood,NY,11717,40.80386,-73.268481,Transfer Switch Only,POINT (-73.268481 40.80386)
474,Atlantis Management Group II LLC,366 Middle Country Rd,Coram,NY,11727,40.869373,-72.999349,Transfer Switch Only,POINT (-72.999349 40.869373)
723,Good Luck Calverton Inc.,1 Edwards Avenue,Calverton,NY,11933,40.90389,-72.742192,Transfer Switch Only,POINT (-72.742192 40.90389)
491,Bill Wolf Petroleum Maintenance LLC,3072 Cropsey Av,Brooklyn,NY,11224,40.580332,-73.98589,Transfer Switch Only,POINT (-73.98589 40.580332)
676,"Cumberland Farms, Inc.",260-01 Little Neck Parkway,Queens,NY,11362,40.766074,-73.72459,Transfer Switch Only,POINT (-73.72459 40.766074)
427,Global Montello Group LLC,606 Wantagh Avenue,Levittown,NY,11756,40.709507,-73.502717,Transfer Switch Only,POINT (-73.502717 40.709507)
590,"Cumberland Farms, Inc.",2309 Middle Country Road,Centereach,NY,11720,40.858468,-73.093133,Transfer Switch Only,POINT (-73.093133 40.858468)
163,American Petroleum Distributors LLC,3287 Merrick Rd,Wantagh,NY,11793,40.665038,-73.509149,Transfer Switch Only,POINT (-73.509149 40.665038)
532,Kaj Petroleum Inc,5701 2nd Avenue,Brooklyn,NY,11220,40.6449333333,-74.0210166667,Transfer Switch Only,POINT (-74.0210166667 40.6449333333)
945,Cross County Petroleum Inc.,191 McLean Avenue,Yonkers,NY,10705,40.914258,-73.889876,Transfer Switch and Generator,POINT (-73.889876 40.914258)
796,West Park Ave Service Center Inc,390 West Park Ave,Long Beach,NY,11561,40.587973,-73.675114,Transfer Switch Only,POINT (-73.675114 40.587973)
681,"Cumberland Farms, Inc.",137-21 Liberty Avenue,Queens,NY,11435,40.692443,-73.810013,Transfer Switch Only,POINT (-73.810013 40.692443)
664,"Cumberland Farms, Inc.",450 Larkfield Road,East Northport,NY,11731,40.865033,-73.321525,Transfer Switch Only,POINT (-73.321525 40.865033)
549,Lynbrook Petroleum Inc.,440 Sunrise Hwy,Lynbrook,NY,11563,40.6555333333333,-73.66915,Transfer Switch Only,POINT (-73.66915 40.6555333333333)
928,Gaseteria Oil Corp,154-09 Union Tpk,Queens,NY,11367,40.720033,-73.809456,Transfer Switch Only,POINT (-73.809456 40.720033)
375,Hess Corporation,3415 Veterans Memorial Highway,Ronkonkoma,NY,11779,40.78746,-73.125837,Transfer Switch Only,POINT (-73.125837 40.78746)
256,Hess Corporation,525 William Floyd Parkway,Shirley,NY,11967,40.795793,-72.864917,Transfer Switch Only,POINT (-72.864917 40.795793)
649,"Cumberland Farms, Inc.",3602 Snyder Av,Brooklyn,NY,11203,40.649034,-73.943267,Transfer Switch Only,POINT (-73.943267 40.649034)
210,Hess Corporation,80-07 Cypress Avenue,Queens,NY,11385,40.69408,-73.896863,Transfer Switch Only,POINT (-73.896863 40.69408)
488,Bill Wolf Petroleum Maintenance LLC,842 5th Ave,Brooklyn,NY,11232,40.652911,-74.002567,Transfer Switch Only,POINT (-74.002567 40.652911)
113,Bolla Operating LI Corp,791 Stewart Avenue,Garden City,NY,11530,40.73372,-73.604901,Permanent Generator,POINT (-73.604901 40.73372)
813,"New Age Petroleum Co., Inc.",376 Bradhurst Av,Hawthorne,NY,10532,41.106774,-73.801449,Transfer Switch Only,POINT (-73.801449 41.106774)
750,850 Corona Enterprise Inc.,850 North Corona Avenue,North Valley Stream,NY,11580,40.685338,-73.688039,Transfer Switch Only,POINT (-73.688039 40.685338)
618,"Cumberland Farms, Inc.",108-04 Flatlands Av,Brooklyn,NY,11236,40.649189,-73.891835,Transfer Switch Only,POINT (-73.891835 40.649189)
517,East End Marketing,225 Higbie Lane,West Islip,NY,11795,40.708237,-73.306047,Transfer Switch Only,POINT (-73.306047 40.708237)
940,Cyprian Truck & Auto Repairs Inc.,127-48 Northern Boulevard,Queens,NY,11368,40.762161,-73.842228,Transfer Switch and Generator,POINT (-73.842228 40.762161)
343,BP Products North America Inc.,6002 18th Avenue,Brooklyn,NY,11204,40.622046,-73.987706,Transfer Switch Only,POINT (-73.987706 40.622046)
124,Bolla Operating LI Corp,5477 Nesconset Highway,Mt. Sinai,NY,11766,40.931349,-73.034454,Permanent Generator,POINT (-73.034454 40.931349)
356,BP Products North America Inc.,212-01 Hillside Avenue,Queens,NY,11427,40.725064,-73.754103,Transfer Switch Only,POINT (-73.754103 40.725064)
755,"Big Apple Petroleum Realty, Llc",110-50 Horace Harding Expy,Queens,NY,11375,40.73803,-73.8483,Transfer Switch Only,POINT (-73.8483 40.73803)
554,Bill Wolf Petroleum Maintenance LLC,1 Cortelyou Rd,Brooklyn,NY,11218,40.638045,-73.979359,Transfer Switch Only,POINT (-73.979359 40.638045)
969,Path Petroleum Corp,925 Straight Path,West Babylon,NY,11704,40.72277,-73.376669,Transfer Switch and Generator,POINT (-73.376669 40.72277)
459,"Sunoco, Inc. (R+M)",700 South Av,Staten Island,NY,10303,40.622019,-74.168744,Transfer Switch Only,POINT (-74.168744 40.622019)
824,Atlantis Management Group II LLC,41 Suburban Avenue,Deer Park,NY,11729,40.753681,-73.315948,Transfer Switch Only,POINT (-73.315948 40.753681)
837,Warex Terminals Corporation,1 Powerhouse Rd,Roslyn Heights,NY,11577,40.785487,-73.639394,Transfer Switch Only,POINT (-73.639394 40.785487)
195,Hess Corporation,3203 Route 112,Medford,NY,11763,40.839042,-72.996074,Transfer Switch Only,POINT (-72.996074 40.839042)
146,Genesis Petroleum Inc.,315 Route 112,Port Jefferson,NY,11776,40.932113,-73.052602,Permanent Generator,POINT (-73.052602 40.932113)
777,"Big Apple Petroleum Realty, LLC",181-05 Horace Harding Expy,Queens,NY,11365,40.739967,-73.792522,Transfer Switch Only,POINT (-73.792522 40.739967)
49,Wellwood Energy,641 Wellwood Ave,Lindenhurst,NY,11757,40.700386,-73.384193,Permanent Generator,POINT (-73.384193 40.700386)
526,EFE Corp.,767 Wantagh Avenue,Wantagh,NY,11793,40.705166,-73.503219,Transfer Switch Only,POINT (-73.503219 40.705166)
713,"Eastview Service Station, Inc.",1160 Knollwood Road,White Plains,NY,10603,41.071981,-73.80006,Transfer Switch Only,POINT (-73.80006 41.071981)
558,Bill Wolf Petroleum Maintenance LLC,38-02 21 St,Queens,NY,11101,40.757448,-73.939507,Transfer Switch Only,POINT (-73.939507 40.757448)
1004,Lukoil North America LLC,268 Tarrytown Road,White Plains,NY,10607,41.041619,-73.790562,Transfer Switch Only,POINT (-73.790562 41.041619)
581,"Cumberland Farms, Inc.",219-02 Horace Harding Blvd,Queens,NY,11364,40.748307,-73.758276,Transfer Switch Only,POINT (-73.758276 40.748307)
856,Neighborhood Service Station Inc.,410 Montauk Highway,West Islip,NY,11795,40.696599,-73.313231,Transfer Switch Only,POINT (-73.313231 40.696599)
691,"Cumberland Farms, Inc.",651 Merrick Avenue,East Meadow,NY,11554,40.705242,-73.56888,Transfer Switch Only,POINT (-73.56888 40.705242)
64,Shamir Ent LLC,5991 Expressway Drive North,Holbrook,NY,11741,40.816387,-73.086099,Permanent Generator,POINT (-73.086099 40.816387)
641,"Cumberland Farms, Inc.",79 Old Country Road,Westbury,NY,11590,40.747665,-73.588271,Transfer Switch Only,POINT (-73.588271 40.747665)
296,Metro NY Dealer Stations LLC,4576 Sunrise Hwy,Oakdale,NY,11769,40.753735,-73.115867,Transfer Switch Only,POINT (-73.115867 40.753735)
19,Bolla Operating LI Corp,100 Hicksville Road,Bethpage,NY,11714,40.72358,-73.486994,Permanent Generator,POINT (-73.486994 40.72358)
873,341 West Jericho Turnpike Corp.,341 W Jericho Tpk,Huntington,NY,11743,40.828974,-73.427619,Transfer Switch Only,POINT (-73.427619 40.828974)
706,Arzu Petroleum Corp,1573 Islip Avenue,Central Islip,NY,11722,40.781161,-73.217076,Transfer Switch Only,POINT (-73.217076 40.781161)
283,NY Fuel Distributors LLC,852 Scarsdale Avenue,Scarsdale,NY,10583,40.986838,-73.80858,Transfer Switch Only,POINT (-73.80858 40.986838)
151,575 Fuel Inc,575 south broadway,Hicksville,NY,11801,40.754597,-73.507877,Permanent Generator,POINT (-73.507877 40.754597)
708,Arzu Petroleum Corp,1090 Portion Road,Farmingville,NY,11738,40.834761,-73.062994,Transfer Switch Only,POINT (-73.062994 40.834761)
888,Ac79th&Eliot Operating Corp,73-15 Eliot Av,Queens,NY,11379,40.722103,-73.885996,Transfer Switch Only,POINT (-73.885996 40.722103)
415,Bolla EM Realty LLC,1249 Coney Island Avenue,Brooklyn,NY,11230,40.627463,-73.965391,Transfer Switch Only,POINT (-73.965391 40.627463)
972,109 Gas Corp.,500 Rt 109,Lindenhurst,NY,11757,40.711495,-73.370613,Transfer Switch and Generator,POINT (-73.370613 40.711495)
96,Airport Enterprises Inc,133-44 150 street,Jamaica,NY,11436,40.667261,-73.789714,Permanent Generator,POINT (-73.789714 40.667261)
328,Peninsula Services Inc.,771 Peninsula Boulevard,Hempstead,NY,11550,40.693181,-73.631642,Transfer Switch Only,POINT (-73.631642 40.693181)
955,Strong Oil Company,250 Montauk Highway,Hampton Bays,NY,11946,40.883461,-72.504736,Transfer Switch and Generator,POINT (-72.504736 40.883461)
740,Manetto Car Care,160 Manetto Hill Rd,Plainview,NY,11803,40.783519,-73.473238,Transfer Switch Only,POINT (-73.473238 40.783519)
410,Bolla Operating LI Corp,560 Middle Country Road,St. James,NY,11787,40.859298,-73.160868,Transfer Switch Only,POINT (-73.160868 40.859298)
264,NY Fuel Distributors LLC,1455 Weaver Street,Scarsdale,NY,10583,40.979409,-73.77625,Transfer Switch Only,POINT (-73.77625 40.979409)
311,Metro NY Dealer Stations LLC,220 Mineola Ave,Roslyn Heights,NY,11577,40.785645,-73.648642,Transfer Switch Only,POINT (-73.648642 40.785645)
994,CPD NY Energy Corp,142 Tuckahoe Road,Yonkers,NY,10710,40.954208,-73.863963,Transfer Switch Only,POINT (-73.863963 40.954208)
51,PMG Northeast LLC,1214 Grand Avenue,Baldwin,NY,11510,40.68069,-73.61523,Permanent Generator,POINT (-73.61523 40.68069)
68,East Hills Autofix LLC,449 Glen Cove Road,Roslyn Heights,NY,11577,40.784673,-73.623086,Permanent Generator,POINT (-73.623086 40.784673)
200,Hess Corporation,Po Box 364 1138 Montauk Hwy,Water Mill,NY,11976,40.919217,-72.343701,Transfer Switch Only,POINT (-72.343701 40.919217)
674,"Cumberland Farms, Inc.",573 Tuckahoe Road,Yonkers,NY,10710,40.953883,-73.847378,Transfer Switch Only,POINT (-73.847378 40.953883)
